sim_time x y z roll pitch yaw vx vy vz wx wy wz [pi wi]
828 -0.9159518112585164 -0.8538517478355088 1.602640077588402 0.08346425437357358 0.09924946565648393 -0.0040191565588848155 0.03433978796724122 -0.00203635427243541 -0.014002366793849157 -0.1254185903587882 -0.01508126545807628 -0.0666537383518131 [0.7000008009643601, -5.350640208760457e-06, 0.04952049155813245, 0.5492354655640773, 0.2939176148791998, 1.0609263645239166, 0.6825579991669571, -0.055033579771523185, 0.13661400019457287, 0.3029073237588248, 0.4191272045526235, 0.11491892756641046, 0.48312680320368195, 0.235600230010402, 0.003558401509007595, 0.013211225926926773, -0.25290729411686386, 0.41108952439160407, 0.648333468888519, -0.06758819049076313, -0.028060297531735414, 0.2621918191690567, -0.32765801664915006, 0.4457349847256706]
829 -0.9159176039420637 -0.8538537022871256 1.6026260773156285 0.08333768511090288 0.09923321000800113 -0.004097824449031389 0.034207316452738945 -0.0019544516169061393 -0.014000272773571455 -0.12601142962979095 -0.015744363342579098 -0.06612759532765966 [0.7000007978959905, -3.0683696296482377e-06, 0.05006576721103507, 0.545275652902621, 0.294975850057903, 1.0582351787031674, 0.6825010411944027, -0.05695797255441325, 0.136918165544637, 0.3041653500641367, 0.41924670606376685, 0.11950151114335328, 0.483364264697216, 0.23746149353405657, 0.0035712062758082117, 0.012804766800616787, -0.25249764986115236, 0.40964425571151947, 0.6482660767494556, -0.0673921390634024, -0.027798432301080298, 0.2618652306551175, -0.3272100047550154, 0.44801189413466314]
830 -0.9158835281765098 -0.8538555752394763 1.6026120789425127 0.08321052150977097 0.09921627807350325 -0.004176029337083784 0.03407576555394578 -0.0018729523506833498 -0.013998373115780687 -0.12660707998849352 -0.016408312144971827 -0.06560780680563418 [0.7000007967370034, -1.1589870581221046e-06, 0.0506071393131026, 0.5413721020675346, 0.2960314274303588, 1.0555773724557922, 0.68244215168706, -0.05888950734269214, 0.1372235202250467, 0.3053546804096804, 0.4193704689706837, 0.12376290691686138, 0.4836035887588384, 0.23932406162242872, 0.003583629729362088, 0.012423453553876581, -0.2520893759576913, 0.40827390346102993, 0.6481988871708152, -0.0671895786403416, -0.027536940560386983, 0.26149174069331516, -0.3267597708510987, 0.4502339039167114]
831 -0.9158495830346834 -0.8538573671063459 1.6025980822759718 0.08308276111449862 0.09919866927086192 -0.004253777711504353 0.03394514182632847 -0.0017918668695935803 -0.013996666541000026 -0.12720528394198785 -0.01707279786070958 -0.06509436916783251 [0.7000007972075267, 4.7052324583796157e-07, 0.05114466354030032, 0.5375242271977132, 0.2970843803297817, 1.052952899422868, 0.6823813246518782, -0.06082703518188144, 0.13752999888640333, 0.30647866135662494, 0.41949819313314957, 0.12772416246585724, 0.4838447762667102, 0.24118750787179374, 0.0035956970372263168, 0.012067307864228452, -0.25168240384154317, 0.40697211614816947, 0.6481319060423046, -0.06698112851055449, -0.02727586543193638, 0.26107512845060515, -0.32630736787593656, 0.4524029751621475]
832 -0.9158157675830717 -0.853859078311322 1.6025840871243244 0.08295440171235535 0.09918038331311763 -0.004331076025060614 0.033815451611786944 -0.0017112049761461615 -0.013995151647297277 -0.12780579792521177 -0.017737525772023824 -0.06458727216586442 [0.7000007991085778, 1.9010510995329244e-06, 0.05167839496914033, 0.5337314288400129, 0.29813474202796636, 1.0503616981846635, 0.682318555177257, -0.06276947462110088, 0.1378375394188909, 0.30754053248757685, 0.4196295981659105, 0.13140503276091, 0.4840878276872674, 0.24305142055719262, 0.003607433289897108, 0.011736252670790998, -0.2512766708435934, 0.4057329979497518, 0.6480651386711148, -0.06676737118980769, -0.027015246441361405, 0.2606189905749723, -0.3258528469556906, 0.45452092024592833]
833 -0.9157821697073159 -0.8538597129459934 1.602576262333002 0.08285703777858405 0.09911265365604092 -0.0044079597930619975 0.0335978757558175 -0.0006346346713675417 -0.007824791322423402 -0.09718080049457331 -0.06730566766074811 -0.06724628044592815 [0.7000007521772776, -4.693130019428962e-05, 0.05227453170549368, 0.5961367363533516, 0.29913316602344103, 0.9984239954746751, 0.6821565470969361, -0.16200808032095237, 0.1381289099538303, 0.2913705349393762, 0.4197091778304444, 0.0795796645338972, 0.4843277814694945, 0.23995378222714073, 0.0036455368593489223, 0.03810356945181462, -0.2508308716307408, 0.44579921285258434, 0.6480707417231568, 0.00560305204195332, -0.026712452363510903, 0.30279407785050083, -0.32542592029585704, 0.42692665983354744]
834 -0.9157487356980221 -0.8538602085603239 1.6025694557632193 0.08276073028415624 0.09904060667204453 -0.004483806301517688 0.0334340092938131 -0.0004956143304419777 -0.006806569782722571 -0.09615455949581903 -0.07162020125276598 -0.06632028940013875 [0.7000006729871526, -7.919012498127341e-05, 0.052855872534051426, 0.5813408285577433, 0.3000930564418327, 0.9598904183916767, 0.6819796404374414, -0.17690665949471318, 0.13842062301345562, 0.2917130596253408, 0.41978669436896004, 0.07751653851564545, 0.4845657921639099, 0.23801069441536304, 0.0036859708185270055, 0.040433959178083345, -0.2503840754719408, 0.44679615880001816, 0.6480770970996845, 0.006355376527738146, -0.026406758368456792, 0.3056939950541102, -0.3250006263973165, 0.42529389854053856]
835 -0.9157154646101076 -0.8538606510183532 1.6025627504060445 0.08266355179724315 0.0989680330473649 -0.004558667380429688 0.03327108791451184 -0.0004424580292854737 -0.006705357174785461 -0.09702974416319794 -0.0721356689580692 -0.06525569853775784 [0.7000006311373631, -4.18497894694083e-05, 0.05341226794649975, 0.5563954124483277, 0.30101480112772294, 0.9217446858902218, 0.681799824027096, -0.17981641034537377, 0.13871410196358785, 0.2934789501322367, 0.4198712471404616, 0.08455277150152016, 0.4848052804077004, 0.23948824379048755, 0.0037263212575466614, 0.04035043901965579, -0.2499422652801573, 0.4418101917834839, 0.648082426887223, 0.005329787538445086, -0.02610038946164199, 0.30636890681480283, -0.3245769421819935, 0.42368421532304273]
836 -0.9156823725148069 -0.8538610463235269 1.6025560081519785 0.08256542013877985 0.09889517840323932 -0.0046325835773030795 0.03309209530070935 -0.0003953051736886883 -0.00674225406591621 -0.0979856003802171 -0.07240510513113385 -0.0642237031279851 [0.7000005904001314, -4.073723173789873e-05, 0.05394371621411879, 0.531448267619032, 0.3019026013405897, 0.8878002128667986, 0.681618603285677, -0.18122074141902636, 0.13900930512926007, 0.295203165672232, 0.4199637266422068, 0.09247950174523535, 0.4850470434348668, 0.24176302716642992, 0.003766361893068295, 0.04004063552163357, -0.24950597528292362, 0.4362899972336978, 0.6480872265568028, 0.004799669579918554, -0.025793973804223047, 0.3064156574189423, -0.32415359432944657, 0.4233478525469598]
837 -0.9156494737793418 -0.8538613920607334 1.602549213707872 0.08246633835104979 0.09882200456357579 -0.004705586367509442 0.0328987354651073 -0.0003457372064908329 -0.00679444410653006 -0.09893859665000021 -0.07271268115886544 -0.06322365093839853 [0.7000005584404863, -3.1959645187379024e-05, 0.05445154101511949, 0.5078248010007026, 0.3027605350495057, 0.8579337089159557, 0.6814360531193193, -0.18255016635769236, 0.13930608298984043, 0.29677786058035693, 0.42006373331531294, 0.10000667310612972, 0.48529124667517365, 0.24420324030684912, 0.0038060728465887515, 0.03971095352045676, -0.24907492241745519, 0.43105286546843996, 0.6480916548746227, 0.004428317819864346, -0.025488258950361383, 0.305714853861664, -0.3237291663124888, 0.42442801695772914]
838 -0.9156167795132626 -0.8538616846407574 1.6025423700562054 0.08236631365014678 0.09874845632090515 -0.004777702738481563 0.032694266079249426 -0.0002925800239531286 -0.0068436516667254 -0.09988467045057993 -0.0730754482752571 -0.06225147050872719 [0.7000005342886877, -2.415179854807492e-05, 0.05493721307481465, 0.4856720596951624, 0.3035919196141416, 0.8313845646359468, 0.6812520666042223, -0.1839865150970355, 0.13960429408365158, 0.29821109381114363, 0.4201706992314708, 0.10696591615790285, 0.48553793019649066, 0.24668352131702115, 0.003845453816701651, 0.039380970112899594, -0.24864872386327683, 0.42619855417835906, 0.6480957825675172, 0.004127692894533044, -0.025183968023758305, 0.3042909266030775, -0.32330256086026, 0.4266054522288336]
839 -0.9155842982539154 -0.8538619203411282 1.6025354822473612 0.08226535511911127 0.09867448641588342 -0.00484895494208263 0.0324812593471842 -0.00023570037082219083 -0.006887808844065821 -0.10082193895543932 -0.0734854689565328 -0.06130261480468418 [0.700000516278705, -1.8009982757393947e-05, 0.05540218093952693, 0.4649678647122751, 0.3043994700484775, 0.8075504343359097, 0.6810665325782073, -0.18553402601509494, 0.13990381363430912, 0.29951955065755553, 0.42028406074849917, 0.11336151702832063, 0.485787102414132, 0.24917221764133968, 0.0038845090749802507, 0.03905525827859976, -0.24822700957052246, 0.4217142927543682, 0.648099665779249, 0.0038832117318601013, -0.024881731092561706, 0.3022369311965993, -0.3228730042763897, 0.4295565838702604]
840 -0.9155520366751712 -0.8538620955759219 1.602528555119943 0.08216347354308119 0.0986000553994656 -0.004919360678517592 0.03226157874429516 -0.00017523479371444331 -0.006927127418182518 -0.10174868109525287 -0.07393494358195055 -0.06037270329371685 [0.7000005030510528, -1.3227652197819392e-05, 0.05584783894440188, 0.44565800487494955, 0.305185470991174, 0.7860009426964681, 0.6808793550550762, -0.18717752313107183, 0.14020453168771582, 0.3007180534067116, 0.42040328233962104, 0.11922159112188037, 0.486038759559785, 0.251657145653013, 0.0039232483374983165, 0.038739262518065455, -0.24780943892681484, 0.4175706437076264, 0.6481033581605031, 0.0036923812540841545, -0.024582070219524316, 0.29966087303738975, -0.3224399768187314, 0.4330274576583186]
841 -0.9155200000895408 -0.8538622069837081 1.6025215930716774 0.08206068096796013 0.09852512997269856 -0.004988933737575545 0.03203658563036584 -0.00011140778625068854 -0.006962048265601902 -0.1026636203950468 -0.07441773134062638 -0.0594579521737211 [0.700000493584559, -9.466493785609265e-06, 0.05627551625792898, 0.4276773135270991, 0.30595189190808986, 0.7664209169158424, 0.6806904523572909, -0.18890269778538152, 0.1405063504535727, 0.3018187658568947, 0.42052785913906937, 0.12457679944833053, 0.48629289111269597, 0.2541315529109818, 0.003961687474259155, 0.03843913676083803, -0.24739570199613745, 0.41373693067738926, 0.648106911187069, 0.0035530265658970436, -0.024285405440467266, 0.2966647790570494, -0.32200314530172797, 0.43683151700341855]
842 -0.9154881927969326 -0.8538622514349534 1.602514600101547 0.08195699040717759 0.09844968185483934 -0.0050576848493011205 0.0318072926082338 -4.4451245396831326e-05 -0.006992970130533395 -0.10356577566574411 -0.07492882242799104 -0.05855539862889615 [0.7000004871364985, -6.448060412077294e-06, 0.05668647135743008, 0.41095509950109615, 0.30670046120929007, 0.7485693012002104, 0.6804997549443054, -0.1906974129854772, 0.14080918176665397, 0.30283131308126676, 0.42065731679239315, 0.12945765332375916, 0.486549481810754, 0.2565906980580834, 0.0039998483153326075, 0.03816084107345307, -0.24698551802982346, 0.410183966313969, 0.6481103732892711, 0.0034621022021200324, -0.023992070226567744, 0.29333521389952133, -0.3215623092093902, 0.44083609233772814]
843 -0.9154566183328907 -0.8538622259965367 1.602507579875466 0.08185241574616395 0.09837368709500639 -0.005125622577925057 0.03157446404191017 2.5438416654590315e-05 -0.007020226080790914 -0.10445426250599642 -0.0754638953345458 -0.057662963684755306 [0.7000004831212808, -4.01521774126036e-06, 0.0570818893650813, 0.3954180076512224, 0.3074327154219539, 0.732254212663803, 0.6803072039423117, -0.1925510019936572, 0.14111294481518985, 0.3037630485358706, 0.42079121095186595, 0.1338941594728095, 0.48680851241151835, 0.2590306007643247, 0.004037758029481539, 0.0379097141489318, -0.2465786334520802, 0.4068845777432544, 0.648113789479081, 0.0034161898099373455, -0.023702331168128313, 0.28973905843943043, -0.3211173599780114, 0.4449492313788118]
844 -0.9154252726685133 -0.8538621259030623 1.602500535011043 0.08174697082665931 0.09829712299666113 -0.005192741433294919 0.03134566437747101 0.00010009347436534951 -0.007044864422873274 -0.10532912168335498 -0.07602170032428973 -0.05676658939115059 [0.7000004806391006, -2.4821802755738143e-06, 0.057462855678681035, 0.3809663135997341, 0.30815004380359506, 0.7173283816411847, 0.6801127431824949, -0.19446075981675146, 0.14141759993711736, 0.30465512192751026, 0.4209291170907549, 0.13790613888898567, 0.487069965726396, 0.26145331487766654, 0.004075419553888306, 0.03766152440676635, -0.2461748116338653, 0.4038218182148979, 0.648117495640365, 0.0037061612839879698, -0.023417675403366225, 0.28465576476208704, -0.320671352497093, 0.44600748091835934]
845 -0.915394155118354 -0.8538619485446952 1.6024934682659429 0.0816406660065034 0.09821996792241101 -0.005259036740335923 0.031117550159316186 0.00017735836707825415 -0.007066745100204295 -0.10619381759088248 -0.0766011655840328 -0.055866749698658125 [0.7000004791764263, -1.4626742817222885e-06, 0.05783040838069005, 0.3675527020090146, 0.3088537168948354, 0.7036730912402983, 0.67991631558052, -0.19642760197486062, 0.14172309849731107, 0.30549856019370786, 0.4210706468396222, 0.1415297488672753, 0.48733383065676295, 0.26386493036696435, 0.0041128587773755386, 0.03743922348723234, -0.24577384640461403, 0.4009652292512488, 0.6481216353790786, 0.0041397387136563124, -0.023138527827055395, 0.2791475763108299, -0.3202254090148256, 0.44594348226742136]
846 -0.9153632669178755 -0.853861692144101 1.6024863823776976 0.08153351268094793 0.09814220368899779 -0.005324507056983264 0.03088820047852145 0.0002564005942048862 -0.007085888245166266 -0.10704730230672399 -0.07719884697722784 -0.05496678054660295 [0.7000004784595191, -7.169071852388201e-07, 0.058185522721150414, 0.3551143404603664, 0.30954489205346997, 0.6911751586345869, 0.6797178744758059, -0.19844110471417023, 0.14202938376804047, 0.3062852707294115, 0.42121545000909866, 0.1448031694764473, 0.48760009224243983, 0.26626158567688435, 0.004150113570274651, 0.03725479289911238, -0.24537555363480196, 0.39829276981206607, 0.6481262373703447, 0.004601991266073448, -0.02286483264841047, 0.27369517864492693, -0.31977956517065187, 0.4458438441737411]
847 -0.9153326090579514 -0.8538613549795576 1.6024792798666245 0.08142552326212371 0.09806381507529802 -0.00538915103900746 0.030657859924032506 0.000337164543425924 -0.007102511073106702 -0.10788855003312334 -0.07781179230409727 -0.05406688005205402 [0.7000004782944752, -1.650438902602372e-07, 0.05852910543464741, 0.343582713497002, 0.3102246254080197, 0.6797333545497352, 0.6795173819673361, -0.20049250846972652, 0.14233640154261087, 0.307017774570412, 0.42136320595007104, 0.14775594097239286, 0.4878687322225994, 0.26863998015958285, 0.004187223537008455, 0.03710996673380486, -0.2449797674420768, 0.3957861927251581, 0.6481313222959656, 0.005084925620942723, -0.022596530727450215, 0.26830192096025424, -0.31933385121926405, 0.4457139513878142]
848 -0.915302182332135 -0.8538609353826386 1.6024721630840197 0.08131671078002024 0.09798478956158473 -0.005452967574656105 0.03042672581643109 0.0004195969190001223 -0.007116782604736282 -0.1087169325840569 -0.07843730814217015 -0.05316734131160233 [0.7000004785319174, 2.3744216369036425e-07, 0.058861998506457194, 0.3328930718097795, 0.31089388402297036, 0.6692586149506422, 0.6793148072221793, -0.20257474515679227, 0.14264409942527428, 0.3076978826633967, 0.4215136202232302, 0.15041427315915892, 0.4881397296310163, 0.27099740841692666, 0.004224229712844528, 0.037006175836072026, -0.24458633927137616, 0.3934281707006626, 0.648136907625292, 0.005585329326323904, -0.022333560042130534, 0.26297068531968093, -0.3188882959196931, 0.4455552995709855]
849 -0.9152719873617864 -0.8538604317427683 1.6024650342292281 0.08120708875239985 0.09790511703033247 -0.005515955783326881 0.030194970348635046 0.0005036398703115815 -0.00712885479164573 -0.10953195208354681 -0.07907299962693456 -0.05226844289955601 [0.7000004790562554, 5.243379758226863e-07, 0.059184982999191844, 0.32298449273464763, 0.31155355598753404, 0.6596719645636725, 0.6791101256443143, -0.20468157786505392, 0.14295242691414659, 0.3083274888722955, 0.4216664225140901, 0.15280229085991773, 0.4884130612843841, 0.2733316533677762, 0.004261174470363564, 0.03694475751903615, -0.2441951370837257, 0.3912021876504508, 0.648143008244028, 0.006100618736123451, -0.02207585633909681, 0.25770370303372264, -0.318442926919839, 0.4453689998540871]
850 -0.915242024615401 -0.8538598425105605 1.6024578953624877 0.08109667109302837 0.09782478950626251 -0.0055781150041659434 0.029962746385309925 0.0005892322078138551 -0.007138866740490239 -0.11033320273767945 -0.07971673137758156 -0.05137044260377655 [0.7000004797781885, 7.21933105564572e-07, 0.059498782835206133, 0.3137998360142914, 0.3122044588312099, 0.6509028436758835, 0.6789033182076717, -0.2068074366425701, 0.14326133549798895, 0.30890858384236786, 0.4218213647575299, 0.1549422434398174, 0.4886887021849024, 0.2756409005182741, 0.004298101436169518, 0.0369269658059545, -0.24380604457939223, 0.3890925043334801, 0.648149636753957, 0.006628509928947447, -0.021823353678550653, 0.25250266054615933, -0.3179977708629534, 0.44515605688559967]
851 -0.9152122944243231 -0.8538591661998344 1.6024507484161545 0.0809854720382961 0.0977438009320708 -0.0056394447835224504 0.02973019107804386 0.0006763107261288008 -0.007146946333192466 -0.11112035243718406 -0.08036659188501508 -0.05047357812733304 [0.700000480628955, 8.507665724983432e-07, 0.05980406847699735, 0.3052856417912206, 0.31284734665702163, 0.642887825811726, 0.6786943708833886, -0.20894732428312493, 0.1435707787229878, 0.3094432249988491, 0.4219782193922673, 0.15685463473740652, 0.48896662585370115, 0.2779236687987577, 0.004335055409075832, 0.03695397290631394, -0.24341896045425956, 0.38708412513266344, 0.6481568037150148, 0.007166961057851713, -0.021575984879862883, 0.24736879868776837, -0.31755285344863265, 0.4449174143207313]
852 -0.9151827969957221 -0.8538584013886468 1.6024435952047613 0.08087350608768515 0.09766214697364946 -0.005699944862237792 0.029497428600933 0.0007648111875592651 -0.007153211393243025 -0.11189312889939394 -0.0810208640713248 -0.04957806831537054 [0.7000004815558472, 9.268921019990953e-07, 0.060101460467042234, 0.2973919900448778, 0.31348291627095193, 0.6355696139302907, 0.6784832741414878, -0.21109674190074176, 0.1438807122312475, 0.30993350825969185, 0.42213677773181674, 0.1585583395494015, 0.48924680460860165, 0.2801787549005165, 0.004372082281357929, 0.037026872282096814, -0.24303379769322903, 0.3851627610305338, 0.6481645178545079, 0.007714139493064946, -0.02133368188785154, 0.24230299201134367, -0.31710819947204844, 0.4446539765842037]
853 -0.9151535324234196 -0.8538575467196166 1.6024364374341031 0.08076078795538384 0.09757982484994525 -0.005759615163131189 0.029264572302596263 0.0008546690301754334 -0.007157770658138228 -0.1126513085113922 -0.08167800069685165 -0.04868411447264789 [0.700000482518697, 9.628498210271022e-07, 0.06039153280322018, 0.29007233617795164, 0.3141118125093087, 0.628896238356756, 0.6782700225146315, -0.21325162685621085, 0.14419109377503447, 0.3103815437869904, 0.42229684844423554, 0.16007071241878137, 0.48952920979663717, 0.2824051880355319, 0.004409228964240201, 0.037146682882271694, -0.24265048290324753, 0.38331478998149376, 0.648172786249943, 0.008268395435158667, -0.021096376075324823, 0.23730581252671637, -0.316663832848637, 0.44436662341146194]
854 -0.9151245006969859 -0.8538566008997432 1.602429276709485 0.08064733253104274 0.09749683318368729 -0.005818455778927816 0.02903172643360796 0.0009458198733352671 -0.0071607246181030725 -0.1133947071776332 -0.08233660352756515 -0.047791901725800605 [0.7000004834871194, 9.684224077351547e-07, 0.06067481613659244, 0.28328333337225503, 0.31473463291378123, 0.6228204044725282, 0.6780546142146218, -0.21540830000977837, 0.1445018832104906, 0.31078943545611126, 0.4224582561340281, 0.16140768979257308, 0.4898138119893367, 0.28460219269952053, 0.004446543318122568, 0.03731435388236718, -0.2422689556872166, 0.3815272160309416, 0.6481816144896317, 0.008828239688687612, -0.020863998493545758, 0.23237758177906515, -0.31621977662877027, 0.4440562198667134]
855 -0.9150957017094293 -0.8538555626998687 1.6024221145432354 0.08053315484813153 0.09741317187000774 -0.0058764669608074895 0.028798987556572477 0.0010381998745099808 -0.007162166249577258 -0.11412317270958244 -0.0829954054738058 -0.046901600408389116 [0.7000004844383458, 9.51226457448183e-07, 0.06095180078573117, 0.27698464913872645, 0.3153519318677021, 0.617298953920894, 0.6778370507942976, -0.2175634203241503, 0.1448130424740932, 0.31115926360260465, 0.4226208400200832, 0.16258388605509452, 0.49010058114697946, 0.2867691576427573, 0.004484074087617923, 0.03753076949535481, -0.24188916805904334, 0.379787628173266, 0.6481910068142875, 0.009392324655772815, -0.020636480079434652, 0.22751841411110454, -0.31577605300563827, 0.4437236231319753]
856 -0.9150671352637147 -0.8538544309538924 1.602414952361573 0.08041827005869295 0.09732884196056293 -0.005933649107700196 0.028566445714628068 0.0011317459763347793 -0.007162181662410336 -0.11483657841867265 -0.08365325511815228 -0.046013367450810014 [0.7000004853555222, 9.171763891068982e-07, 0.06122293956691205, 0.2711387811808801, 0.31596422428116827, 0.6122924134661406, 0.6776173368489168, -0.21971394538075506, 0.14512453554473337, 0.31149307064016485, 0.42278445270387144, 0.16361268378820465, 0.4903894867566954, 0.288905609715958, 0.004521870841198547, 0.03779675358062487, -0.24151108389941287, 0.37808415963048525, 0.6482009662421938, 0.009959427906295844, -0.020413751826282953, 0.2227282531516992, -0.3153326833186965, 0.4433696869417282]
857 -0.9150388010783016 -0.8538532045578202 1.6024077915108983 0.08030269341354318 0.09724384556120051 -0.005990002756415024 0.028334185413109416 0.0012263960721533762 -0.00716085067464387 -0.11553481765968976 -0.08430910319323964 -0.04512734776066085 [0.7000004862263709, 8.708487662274778e-07, 0.06148865044296922, 0.2657108760571729, 0.31657198889386273, 0.6077646126944576, 0.6773954797521848, -0.22185709673198187, 0.14543632839391227, 0.31179284917890476, 0.4229489590223993, 0.1645063185279012, 0.49068049794828983, 0.2910111915944379, 0.004559983915076697, 0.03811307387814971, -0.24113467845139902, 0.37640544801384757, 0.6482114946800362, 0.010528437842473138, -0.020195744923262465, 0.2180069030204891, -0.3148896880544082, 0.44299526428828834]
858 -0.9150106987918469 -0.8538518824687094 1.6024006332635725 0.08018644024716018 0.09715818574155975 -0.00604552857265902 0.028102286454647286 0.0013220891108372218 -0.00715824732567773 -0.11621779913259811 -0.08496199067175496 -0.04424367558272921 [0.7000004870421399, 8.157690015017302e-07, 0.0617493189959359, 0.2606685529666764, 0.31717567125049767, 0.6036823566349573, 0.6771714894229265, -0.22399032925829884, 0.1457483889262277, 0.312060532315435, 0.4231142349806478, 0.16527595824852065, 0.49097358359090987, 0.2930856426200291, 0.00459846436083547, 0.03848044575877311, -0.24075993785472752, 0.37474059667150117, 0.6482225930211268, 0.011098341090606813, -0.019982390867906676, 0.21335405535578827, -0.3144470868455591, 0.4426012088490857]
859 -0.9149828279671891 -0.8538504637035531 1.6023934788232364 0.08006952596664883 0.09707186645525259 -0.006100227342980157 0.02787082465779397 0.0014187651562260345 -0.007154440336267774 -0.11688544279538772 -0.08561103820514133 -0.043362475831045966 [0.7000004877967769, 7.546370320958562e-07, 0.062005300730093305, 0.25598173415740066, 0.3177756863933354, 0.6000151428377477, 0.6769453781190412, -0.2261113038853168, 0.14606068691202218, 0.31229798579446033, 0.4232801667584185, 0.1659317777706667, 0.4912687123730854, 0.29512878217552274, 0.004637363896257802, 0.0388995354223317, -0.24038685871731114, 0.37307913741638604, 0.6482342612324615, 0.011668211334690502, -0.019773621554905474, 0.20876931300120122, -0.3140048984700941, 0.4421883754650226]
860 -0.9149551880947071 -0.8538489473381404 1.602386329329714 0.07995196604428624 0.09698489246948694 -0.006154099967652182 0.027639872482041344 0.0015163654126310613 -0.007149493522355641 -0.11753767627351726 -0.0862554367010628 -0.04248386538795329 [0.7000004884862819, 6.895050506479025e-07, 0.06225692321295905, 0.2516224828657481, 0.3183724213082571, 0.5967349149216823, 0.6767171602558975, -0.22821786314373313, 0.14637319391380002, 0.3125070017778381, 0.4234466497866968, 0.16648302827830047, 0.49156585286822113, 0.2971404951357644, 0.0046767348587594005, 0.039370962501598786, -0.2400154477225618, 0.37141099474933953, 0.648246498431827, 0.01223719936549646, -0.019569369343915073, 0.20425221099040125, -0.3135631408501809, 0.4417576199132309]
861 -0.9149277785951303 -0.8538473325059155 1.6023791858635457 0.07983377601324043 0.09689726930315841 -0.006207147454507211 0.02740949957684504 0.0016148322249721328 -0.007143466168307244 -0.11817443167563267 -0.08689443887134674 -0.04160795436750797 [0.7000004891081993, 6.21917439247964e-07, 0.06250448806223473, 0.24756484927567746, 0.31896623715467787, 0.5938158464207556, 0.6764868522467381, -0.2303080091593433, 0.14668588320778134, 0.31268929398131695, 0.4236135878888089, 0.16693810211206114, 0.4918649735872521, 0.2991207190309628, 0.00471663016080736, 0.03989530204795955, -0.23964572127092715, 0.36972645163465545, 0.6482593029559917, 0.012804524164621148, -0.01936956710858563, 0.19980223532944233, -0.3131218310520275, 0.44130979815335825]
862 -0.9149005988218618 -0.8538456183968556 1.6023720494501812 0.07971497146612762 0.09680900317257975 -0.006259370913714009 0.027179773268438456 0.0017141090599608535 -0.007136413364407528 -0.11879564274441191 -0.08752735161170083 -0.0407348473421611 [0.7000004896612203, 5.530209570342101e-07, 0.06274827278691779, 0.24378472468305573, 0.3195574713047654, 0.5912341500875431, 0.6762544723630053, -0.23237988373285676, 0.14699872970174593, 0.3128464939645832, 0.4237808924818061, 0.16730459299724584, 0.4921660430198853, 0.30106943263318464, 0.004757103246692665, 0.04047308588530504, -0.23927770515408286, 0.36801611684428676, 0.6482726724208661, 0.013369464874447432, -0.019174148268617235, 0.1954188399683962, -0.3126809852868455, 0.44084576518200935]
863 -0.9148736480628664 -0.8538438042563824 1.6023649210638686 0.079595568056131 0.096720100944127 -0.006310771553494149 0.02695075899534183 0.0018141404731766189 -0.007128386312629681 -0.11940124228425082 -0.08815352909995862 -0.039864644533073375 [0.7000004901448718, 4.836514443298107e-07, 0.0629885324907559, 0.24025970383810713, 0.32014643921358993, 0.588967908824527, 0.6760200406127771, -0.23443175022819596, 0.14731170985013034, 0.31298014838440524, 0.42394848183366235, 0.16758935185621548, 0.49246902966561723, 0.3029866457319241, 0.004798208050020575, 0.041104803327910756, -0.23891143426022768, 0.3662708938551915, 0.6482866037744004, 0.013931353534377576, -0.018983046806339488, 0.191101462277745, -0.3122406189132511, 0.4403663735944279]
864 -0.9148469255421651 -0.8538418893843167 1.6023578016312645 0.07947558150045037 0.09663057009318042 -0.006361350676765256 0.0267225207013785 0.0019148720656389714 -0.0071194326041350425 -0.11999115981940099 -0.08877236651650865 -0.03899744296554335 [0.7000004905592737, 4.1440195094975124e-07, 0.06322550144604125, 0.23696895528535586, 0.320733436138759, 0.586996925169043, 0.6757835786357438, -0.23646197703326768, 0.14762480156716798, 0.31309171703762967, 0.42411628037200283, 0.16779853834047737, 0.4927739020555213, 0.3048723899040768, 0.00483999895128302, 0.041790901262444384, -0.23854695230896994, 0.3644819512577374, 0.6483010933428792, 0.0144895684788234, -0.018796197269055338, 0.18684953728415113, -0.3118007464413213, 0.4398724719298379]
865 -0.9148204304209717 -0.8538398731338841 1.602350692034793 0.07935502758589186 0.09654041866881687 -0.006411109678698969 0.026495121193358433 0.002016250432572624 -0.007109596471541363 -0.12056531944334727 -0.08938329430664349 -0.03813333759195565 [0.7000004909049499, 3.456761525424956e-07, 0.06345939454545564, 0.2338930994143956, 0.32131873872560934, 0.5853025868503583, 0.675545109613351, -0.23846902239271894, 0.1479379841387064, 0.313182571538418, 0.42428421804020877, 0.16793766820594822, 0.4930806287656428, 0.3067267101214986, 0.00488253073488272, 0.042531783599700376, -0.23818431161435757, 0.3626406946123562, 0.648316136871194, 0.015043528314773926, -0.018613534758179562, 0.18266251087577565, -0.31136138153846704, 0.4393649028542306]
866 -0.9147941617985023 -0.8538377549107777 1.6023435931157743 0.07923392217643757 0.09644965526378202 -0.006460050045180998 0.02626862246942324 0.0021182231063114148 -0.007098919018552323 -0.12112363782740397 -0.08998577291489177 -0.03727242238521552 [0.70000049118268, 2.777301743453822e-07, 0.06369040863931573, 0.23101409386008848, 0.3219026064720002, 0.5838677463908619, 0.6753046581929111, -0.2404514204399153, 0.14825123813319502, 0.31325399448861374, 0.42445222969684554, 0.1680116566367887, 0.4933891784227054, 0.3085496570626303, 0.004925858544987491, 0.04332781010477077, -0.2378235728746867, 0.3607387396708876, 0.6483317295575949, 0.015592686400866952, -0.018434994906028537, 0.17853985215102558, -0.3109225370372406, 0.4388445012264604]
867 -0.9147681187124791 -0.853835534172283 1.602336505677345 0.0791122812226653 0.09635828898932902 -0.006508173352161719 0.026043086023114396 0.002220738494755624 -0.007087438429294349 -0.12166602236052039 -0.09057928793168873 -0.0364147914064766 [0.7000004913933853, 2.107052023284442e-07, 0.06391872376515481, 0.22831512583907898, 0.32248528308508817, 0.5826766130879888, 0.6750622504246343, -0.2424077682768299, 0.14856454531220772, 0.31330717901269367, 0.4246202545544503, 0.16802485760475236, 0.4936995197027224, 0.3103412800170213, 0.004970037839606062, 0.04417929461857115, -0.23746480498782974, 0.3587678868569572, 0.6483478660833641, 0.016136525769293805, -0.018260513840968846, 0.17448106505969, -0.31048422494516426, 0.43831209207631805]
868 -0.9147423001393515 -0.8538332104264666 1.6023294304871858 0.07899012077290914 0.09626632945456444 -0.00655548126588755 0.025818573127594422 0.0023237458162815913 -0.007075190159357982 -0.12219236939674608 -0.09116334559912598 -0.0355605398513789 [0.700000491538038, 1.4465278312236068e-07, 0.06414450427612904, 0.22578051097423035, 0.3230669977410881, 0.5817146559999111, 0.6748179137106636, -0.24433671397076673, 0.1488778885407416, 0.31334322853386826, 0.42478823565376916, 0.16798109931887062, 0.49401162132301074, 0.312101620288318, 0.005015124342292981, 0.0450865026869193, -0.23710808489095267, 0.35672009687705625, 0.6483645406377949, 0.01667455443079215, -0.01809002814150612, 0.17048569946272377, -0.3100464564566417, 0.4377684885225538]
869 -0.9147167049942475 -0.853830783231435 1.6023223682800753 0.07886745698607611 0.0961737867499893 -0.006601975544006092 0.025595145104000055 0.0024271950316734803 -0.0070622071104583725 -0.12270256258881505 -0.09173746862854595 -0.03470976507961824 [0.7000004916175924, 7.955435442092568e-08, 0.06436789987426189, 0.2233955981328476, 0.32364796625787995, 0.5809685167918297, 0.674571676765318, -0.24623694534550272, 0.14919125169742145, 0.313363156679834, 0.4249561193695641, 0.1678837157949641, 0.4943254520280261, 0.31383070501535537, 0.005061173990910948, 0.04604964861796655, -0.23675349742364782, 0.35458746730484647, 0.6483817469388107, 0.017206301015750936, -0.01792347477978341, 0.16655336172271085, -0.3096092419669925, 0.4372144896491877]
870 -0.9146913321306699 -0.8538282521946617 1.602315319760285 0.07874430614605182 0.0960806714349653 -0.006647658037541514 0.025372863577627403 0.002531036773289147 -0.007048519790246708 -0.12319647128801589 -0.0923011922876467 -0.03386256763327308 [0.7000004916329284, 1.5336034508289798e-08, 0.06458904655404919, 0.22114667978729477, 0.32422839218937766, 0.5804259314976944, 0.6743235695858579, -0.2481071794601368, 0.1495046195846257, 0.3133678872042234, 0.42512385494408894, 0.16773557452483484, 0.4946409805693687, 0.3155285413426509, 0.005108242882905019, 0.04706889199407059, -0.23640113521369988, 0.3523622099479329, 0.6483994782495167, 0.01773131070606384, -0.01776079105485762, 0.1626837249257891, -0.3091725910886344, 0.43665087835813005]
871 -0.9146661803399443 -0.8538256169723903 1.6023082856038262 0.07862068467764734 0.09598699452887818 -0.00669253069374086 0.025151790725606072 0.0026352222713871207 -0.00703415645884088 -0.12367394899205254 -0.09285406071622047 -0.03301905224999729 [0.7000004915848083, -4.812012745648159e-08, 0.06480806746143758, 0.21902090738838834, 0.32480846784978157, 0.5800756604039182, 0.6740736234331864, -0.24994615267153128, 0.14981797783843637, 0.31335825381066973, 0.4252913940442635, 0.16753910017460746, 0.49495817568024725, 0.3171951108785302, 0.005156387216573917, 0.04814433366889784, -0.23605109858493858, 0.3500366287612792, 0.6484177273909316, 0.018249141414851972, -0.017601914516029788, 0.15887653882783329, -0.3087365126694196, 0.4360784192147721]
872 -0.9146412483504245 -0.853822877269113 1.602301266460563 0.07849660916405894 0.09589276750580586 -0.0067365955597970964 0.024931989519772144 0.0027397032773127214 -0.007019143263376469 -0.12413483182131034 -0.09339562343329086 -0.03217932887797208 [0.7000004914738402, -1.1096799208687447e-07, 0.06502507367266512, 0.21700621122753508, 0.3253883752751905, 0.5799074254089119, 0.6738218708220054, -0.2517526111810508, 0.15013131283820008, 0.31333499976372203, 0.42545869033843714, 0.16729629417362976, 0.49527700604463615, 0.31883036438888257, 0.005205663227862822, 0.04927601128890498, -0.23570349548692057, 0.34760309801802125, 0.6484364867511095, 0.018759360177953696, -0.01744678287641354, 0.1551316396162498, -0.3083010148131175, 0.43549785630206783]
873 -0.9146165348264557 -0.85382003283713 1.6022942629562011 0.07837209636583164 0.09579800229253867 -0.006779854787460594 0.024713523968797092 0.0028444319829457818 -0.007003504361786709 -0.12457893700385399 -0.09392543199737205 -0.03134351370050087 [0.7000004913004486, -1.7339159988621206e-07, 0.0652401648969078, 0.2150912242426771, 0.3259682871295155, 0.5799118543249914, 0.6735683455200376, -0.25352530196776135, 0.15044461161535516, 0.31329877715507043, 0.4256256990883958, 0.16700874995867815, 0.49559744026131314, 0.32043421667700156, 0.005256127122248077, 0.05046389438525584, -0.23535844144654353, 0.3450540403770577, 0.6484557482908246, 0.0192615397150573, -0.017295333916835465, 0.15144895957807403, -0.307866104902012, 0.4349099111054903]
874 -0.9145920383670915 -0.8538170834761944 1.6022872756941642 0.07824716324134079 0.09570271126983762 -0.006822310638557798 0.02449645936415679 0.0029493609356084464 -0.006987262036905921 -0.12500606134637518 -0.09444303678145656 -0.030511730179409387 [0.7000004910648474, -2.3560123008255218e-07, 0.06545343010610516, 0.21326520919736414, 0.32654836756121647, 0.5800804317010001, 0.6733130825560322, -0.25526296400546233, 0.15075786176103353, 0.3132501456783667, 0.4257923767519147, 0.1666776635188994, 0.49591944680291755, 0.3220065416044167, 0.005307835001340761, 0.05170787909268358, -0.23501605954214722, 0.3423819043963229, 0.648475503545949, 0.019755255124338837, -0.017147505380063262, 0.1478285367722032, -0.30743178962155954, 0.4343152804524569]
875 -0.914567757504556 -0.8538140290332471 1.6022803052573622 0.07812182696883171 0.09560690727685726 -0.0068639654914439165 0.02428086253543015 0.0030544429473662376 -0.00697043680199287 -0.12541597966446807 -0.09494798382081931 -0.029684110127937258 [0.7000004907670163, -2.9783112109622173e-07, 0.06566494809472975, 0.21151798862458968, 0.32712877301705406, 0.5804054558375757, 0.6730561182363811, -0.2569643196510802, 0.15107105133176987, 0.31318957073633935, 0.42595868059063374, 0.16630383871901983, 0.4962429939701242, 0.32354716720665844, 0.005360842783903521, 0.05300778256276, -0.23467648040122557, 0.33957914092164065, 0.6484957436266169, 0.02024008066791847, -0.01700323485524845, 0.14427052481481023, -0.3069980749870176, 0.4337146345419761]
876 -0.9145436907024342 -0.8538108694022497 1.6022733522098638 0.077996104970091 0.09551060361870822 -0.006904821848426037 0.02406680212169276 0.003159630997405694 -0.006953047498392058 -0.12580844313950898 -0.09543981168703776 -0.0288607948256378 [0.7000004904066781, -3.603381640822703e-07, 0.06587478797160859, 0.20983987687883726, 0.327709653018824, 0.5808800017699295, 0.6727974901702998, -0.2586280660813321, 0.15138416875242924, 0.31311742065938175, 0.4261245682772725, 0.16588768663877232, 0.49656804984097913, 0.32505587085492266, 0.005415206121057171, 0.05436333715364929, -0.23433984222359638, 0.33663817762918025, 0.648516459213218, 0.02071558660109314, -0.01686245965234371, 0.14077520290474027, -0.3065649663719029, 0.43310861511467375]
877 -0.9145198363535666 -0.8538076045241237 1.6022664170984775 0.07787001493586473 0.09541381407718894 -0.006944882344203929 0.023854348867698306 0.00326487812593411 -0.006935111386235303 -0.1261831775595683 -0.09591804833314359 -0.02804193619026033 [0.7000004899832769, -4.234012557710609e-07, 0.06608300958517432, 0.20822161356573596, 0.32829115090890604, 0.5814978900820711, 0.6725372373036724, -0.2602528666273786, 0.15169720271518006, 0.31303396275082424, 0.42628999749510493, 0.1654292178324334, 0.49689458221538596, 0.3265323744068422, 0.005470980305552421, 0.05577418449525009, -0.23400629083280255, 0.3335513907938292, 0.6485376405492126, 0.021181335994598195, -0.0167251166660996, 0.1373429862441093, -0.3061324685380694, 0.432497833833466]
878 -0.9144961927776103 -0.853804234386806 1.6022595004542486 0.07774357485319512 0.09531655292478462 -0.006984149755388087 0.02364357595634409 0.0033701373177804253 -0.006916644228810503 -0.1265398813881065 -0.09638220784183014 -0.02722769802412307 [0.7000004894959565, -4.873204028105899e-07, 0.06628966388269425, 0.2066542975199251, 0.32887340457042635, 0.5822536615203344, 0.6722753999618477, -0.2618373418246975, 0.15201014207295413, 0.3129393577740673, 0.426454925521011, 0.16492802590604538, 0.497222558554659, 0.3279763392730663, 0.005528220175102787, 0.05723986955036553, -0.2336759797597159, 0.3303110730866437, 0.648559277430694, 0.021636881481324973, -0.016591142229053397, 0.13397443704620207, -0.3057005856670822, 0.43188287098719885]
879 -0.9144727582182173 -0.8538007590254323 1.6022526027938777 0.07761680303492399 0.0952188349421198 -0.007022627011168015 0.023434559393034703 0.0034753613737136947 -0.006897660370849714 -0.12687822358349948 -0.09683178698918282 -0.026418257355444903 [0.7000004889435427, -5.524138226194186e-07, 0.06649479320305647, 0.20512932036222412, 0.32945654712791766, 0.5831425574913187, 0.6720120199019027, -0.26338005994497654, 0.15232297572529863, 0.31283365234450605, 0.4266193087810448, 0.16438326003382103, 0.4975519459159575, 0.32938736129852497, 0.005586980009923795, 0.05875983482100826, -0.23334907036387412, 0.3269093958417863, 0.6485813591925407, 0.022081761846710755, -0.016460471952679825, 0.13067027637357173, -0.30526932139239527, 0.431264274686925]
880 -0.9144495308397533 -0.8537971785226648 1.6022457246210668 0.07748971815172087 0.09512067543916894 -0.0070603172052163205 0.023227378463904345 0.003580502767446635 -0.006878172810919451 -0.12719784105959112 -0.09726626150623877 -0.025613805897647383 [0.7000004883245324, -6.190102960264982e-07, 0.06669843150152097, 0.20363829846449233, 0.33004070763457893, 0.5841605066612681, 0.6717471403752071, -0.2648795266955958, 0.15263569249374476, 0.3127167684461428, 0.4267831023638374, 0.1637935827925523, 0.49788271088126435, 0.33076496530679156, 0.005647313424809561, 0.06033341488576591, -0.23302573200013627, 0.3233383637378638, 0.6486038746908908, 0.022515498350127672, -0.016333040555564657, 0.12743139711516782, -0.3048386788315578, 0.43064256083748376]
881 -0.9144265087234535 -0.8537934930091782 1.6022388664277996 0.07736233926715284 0.09502209028069844 -0.007097223608923359 0.02302211629979512 0.0036855134866568325 -0.0068581932672136135 -0.12749833562760288 -0.09768508187159608 -0.024814551650384698 [0.7000004876371031, -6.87429384959963e-07, 0.06690060450338188, 0.20217300186091502, 0.33062601175263084, 0.5853041180519003, 0.6714808062015526, -0.26633417365452894, 0.1529482809826283, 0.31258848888353535, 0.4269462594714117, 0.16315710757432558, 0.49821481948032936, 0.3321085990650196, 0.0057092732563141894, 0.061959831504628735, -0.23270614224097183, 0.3195897591644319, 0.6486268122815138, 0.022937590623003636, -0.01620878167708128, 0.1242588784833767, -0.3044086606171905, 0.43001821436729654]
882 -0.914403689862859 -0.8537897026643204 1.6022320286955647 0.07723468587655737 0.09492309591666177 -0.00713334968605316 0.022818860594472506 0.0037903448577551323 -0.006837732234848579 -0.12777927017384721 -0.09808766838730186 -0.024020720661188787 [0.7000004868791693, -7.579338511037523e-07, 0.0671013297815886, 0.2007252782067211, 0.33121258243390234, 0.5865706812715009, 0.67121306385674, -0.26774234481261144, 0.1532607294193861, 0.3124484367577999, 0.4271087307774171, 0.1624713060054584, 0.49854823710658236, 0.3334176262529961, 0.005772911445910696, 0.06363818959650619, -0.23239048716835276, 0.31565507261906367, 0.6486501597934277, 0.023347511913872986, -0.016087627674612755, 0.12115400246852367, -0.3039792689245794, 0.4293916926111178]
883 -0.9143810721583037 -0.8537858077169621 1.602225211896535 0.07710677795087546 0.09482370941867359 -0.007168699108873231 0.022617704555309044 0.003894947358292388 -0.006816799029682615 -0.12804016367658208 -0.09847340513758328 -0.023232558946401638 [0.7000004860485558, -8.306134268703386e-07, 0.06730061675078304, 0.1992869691944358, 0.3318005406087867, 0.5879581748843783, 0.6709439615764735, -0.2691022802664498, 0.15357302546502907, 0.31229604564298113, 0.4272704636455974, 0.1617328681802932, 0.4988829284242324, 0.3346913176500197, 0.00583827892039165, 0.06536747448095374, -0.23207896175410975, 0.3115254142430153, 0.6486739044967402, 0.023744703312526205, -0.015969509401993768, 0.11811827261898845, -0.3035505054919203, 0.4287634326590931]
884 -0.9143586534100794 -0.8537818084465285 1.6022184164947293 0.07697863598730295 0.0947239485244145 -0.0072032757756803935 0.022418748224337048 0.003999270433580728 -0.006795401805599653 -0.1282804843591938 -0.09884163210960278 -0.02245033450619213 [0.7000004851434709, -9.050849448296455e-07, 0.06749846656642795, 0.1978498156449164, 0.33239000589333145, 0.5894652845447135, 0.6706735494809928, -0.2704120954807012, 0.15388515597907407, 0.31213051404498976, 0.42743140112700095, 0.16093748140357217, 0.4992188572631099, 0.33592883887748337, 0.005905425471251959, 0.06714655086030963, -0.23177177035400057, 0.30719140010918555, 0.6486980330630375, 0.024128566297311922, -0.015854355967092573, 0.11515343490119392, -0.30312237162505373, 0.4281338668665706]
885 -0.9143364313096287 -0.8537777051841511 1.6022116429472242 0.07685028107004367 0.09462383169339957 -0.0072370838292487505 0.022222100450681775 0.0041032623774040905 -0.006773547505104199 -0.12849963954754104 -0.0991916339059643 -0.02167433917092928 [0.7000004841638549, -9.796160537209678e-07, 0.06769487191150493, 0.19640534507697163, 0.33298109732706793, 0.5910914337364516, 0.670401879727799, -0.27166975319377007, 0.15419710670848968, 0.3119507294156059, 0.42759148057365715, 0.16007944665617538, 0.4995559864935869, 0.33712923047701854, 0.005974399635180804, 0.0689741639288447, -0.23146912734805086, 0.3026430059496924, 0.6487225315152244, 0.024498452186920865, -0.01574209446976387, 0.1122614973287064, -0.30269486816677016, 0.4275034582835526]
886 -0.9143144072142967 -0.8537735144375541 1.6022048872956454 0.07672158723672177 0.0945232846937438 -0.007270225754696782 0.02202409533207197 0.004190746596950147 -0.006755651578870496 -0.12884468956234404 -0.09961503345030903 -0.020989026797351814 [0.7000004771702928, -6.993562091251425e-06, 0.06788980100085656, 0.19492908935163822, 0.3335738411444763, 0.5927438174083469, 0.6701287114955295, -0.2731682322693989, 0.15450498858267642, 0.3078818741867423, 0.4277498129203249, 0.15833234666772153, 0.4998946406445283, 0.33865415094140966, 0.0060450093994972465, 0.0706097643164423, -0.23117145729833963, 0.297670049711243, 0.648747434272229, 0.02490275700459993, -0.015632839284849286, 0.10925518491458366, -0.30226821900574996, 0.42664916102017353]
887 -0.9142925801834303 -0.8537692447743259 1.6021981461945323 0.07659250185934507 0.09442227970291349 -0.0073027575088094035 0.02182703086641295 0.004269663228230049 -0.006741101113026665 -0.12924230941303205 -0.10006593240481967 -0.020354831560153983 [0.7000004705579613, -6.612331454387832e-06, 0.06808332831646231, 0.1935273156057555, 0.33416813229068737, 0.5942911462110818, 0.6698539698497489, -0.2747416457806414, 0.15480698990659802, 0.30200132392160317, 0.4279060864108491, 0.1562734905242023, 0.5002349759160934, 0.3403352715651552, 0.00611718125594546, 0.07217185644821364, -0.2308790716924023, 0.2923856059373261, 0.6487727602532588, 0.02532598102974446, -0.015526584826473325, 0.10625445837596086, -0.30184256131809434, 0.4256576876556319]
888 -0.9142709471020386 -0.8537648971063766 1.602191419211092 0.07646304261514629 0.09432083221837124 -0.007334689838452599 0.02163308139173398 0.004347667949270488 -0.006726983440229862 -0.12962219833052646 -0.10050151542442402 -0.019733185666648608 [0.7000004650127513, -5.545210024346034e-06, 0.0682755761009417, 0.19224778447938515, 0.33476384694674854, 0.5957146560611609, 0.6695777104521642, -0.27625939758471996, 0.15510318805610573, 0.29619814950771145, 0.42806034608571697, 0.15425967486785072, 0.5005769705098894, 0.3419945937958744, 0.006190956881395466, 0.07377562545000574, -0.23059218257273825, 0.2868891196640517, 0.6487985011475845, 0.025740894325744425, -0.01542323483488021, 0.10334999159311523, -0.301417906329128, 0.42465498896629505]
889 -0.9142495047356624 -0.8537604723874503 1.6021847064367434 0.07633322679845099 0.09421895898759793 -0.007366033797570762 0.021442366376272788 0.004424718926288975 -0.00671277434870217 -0.12998472646135956 -0.10092053070994854 -0.019124353229511892 [0.7000004603384639, -4.674287348772031e-06, 0.06846664956617393, 0.19107346523222302, 0.33536088271909165, 0.597035772343103, 0.6692999851214908, -0.2777253306733514, 0.1553936647209639, 0.29047666485815715, 0.42821263040799445, 0.1522843222774909, 0.5009205984624027, 0.3436279525133063, 0.006266379429129281, 0.07542254773381427, -0.2303110225111416, 0.28116006159665086, 0.6488246428322647, 0.026141684680145834, -0.015322690262979364, 0.10054457190084495, -0.3009942623711082, 0.42364395801979055]
890 -0.9142282497059414 -0.8537559716066028 1.6021780080344625 0.07620307246602905 0.0941166777855916 -0.0073968008833545495 0.021255029720969792 0.004500780847519176 -0.00669840228086586 -0.13032912530060037 -0.10132195720041995 -0.018528842163791394 [0.7000004563553672, -3.983096579110099e-06, 0.0686566360250593, 0.1899864588853636, 0.3359591518095554, 0.5982690904637253, 0.6690208476785618, -0.2791374429289709, 0.15567850336911132, 0.284838648147425, 0.4283629796147042, 0.1503492067097716, 0.5012658330145292, 0.34523455212653953, 0.006343493268440262, 0.07711383931098115, -0.23003584995129828, 0.2751725598433241, 0.6488511695063723, 0.02652667410763898, -0.015224846781975561, 0.0978434810038032, -0.3005716378813871, 0.42262448972116207]
891 -0.9142071784588476 -0.8537513957817784 1.6021713241808924 0.07607259879478867 0.09401400763169354 -0.00742700312999698 0.02107124709385983 0.004575824824435622 -0.006683853570102729 -0.13065426858697116 -0.10170455960718089 -0.01794728721183713 [0.7000004529639705, -3.39139670948313e-06, 0.0688456060267344, 0.1889700016750986, 0.3365585778451532, 0.5994260355977942, 0.6687403552911851, -0.2804923873767456, 0.15595778873207497, 0.27928536296365897, 0.42851143731327046, 0.14845769856624394, 0.5016126466600287, 0.3468136454995093, 0.006422343878064417, 0.07885060962415524, -0.22976695380206827, 0.2688961492300089, 0.648878064052727, 0.026894546354573643, -0.015129593035517721, 0.0952537464578401, -0.3001500419702388, 0.42159591114825845]
892 -0.9141862872194302 -0.8537467459550034 1.602164655064536 0.07594182643412689 0.09391096908455343 -0.007456653244227312 0.020891239417349893 0.0046498267749405225 -0.006669116356261209 -0.13095867700573263 -0.10206681027354567 -0.017380491001579453 [0.7000004501073158, -2.8566547074096796e-06, 0.06903361429427936, 0.18800826754496147, 0.33715909366176144, 0.6005158166082608, 0.6684585694142599, -0.28178587692526486, 0.15623160645958473, 0.2738177275097625, 0.42865805163165493, 0.1466143183844518, 0.501961010876625, 0.34836421659628736, 0.006502978217807977, 0.08063433974356034, -0.22950466115477688, 0.2622926472913908, 0.6489053078369668, 0.027243784239761027, -0.01503680832245266, 0.09278471306505992, -0.29972948481317274, 0.42055715706607055]
893 -0.914165571914861 -0.8537420231872007 1.6021580008875207 0.07581077801324874 0.09380758477142578 -0.0074857648353259445 0.020715304569147244 0.004722767802761523 -0.00665417701544313 -0.1312403621150771 -0.10240665602584516 -0.016829532813963884 [0.700000447890909, -2.2164068048868488e-06, 0.06922069979218004, 0.18708549790068324, 0.3377606392380301, 0.6015455762686961, 0.6681755572828165, -0.28301213144329046, 0.1565000430321038, 0.2684365725190684, 0.42880287685836277, 0.14482522670784995, 0.50231089579162, 0.3498849149950072, 0.006585446010622701, 0.08246779281472333, -0.22924935201085064, 0.255309143926242, 0.6489328801948226, 0.02757235785584398, -0.014946358975090973, 0.09044934736168767, -0.29930997807227955, 0.4195067408932174]
894 -0.914145023338102 -0.8537372205048542 1.6021513642210607 0.0756795829753391 0.09370397134486794 -0.0075143992412719 0.020548576759059196 0.004802682346480563 -0.0066366664598625945 -0.13139227665110836 -0.10263086933725302 -0.016352125327357265 [0.7000004472042369, -6.866720958058348e-07, 0.06940664496756062, 0.1859451753805797, 0.33836303726288997, 0.6023980248598682, 0.667891653098865, -0.28390418395148004, 0.1567629880559922, 0.26294502388840507, 0.42894609245339727, 0.1432155950344962, 0.5026617804343362, 0.3508846427161649, 0.006667726417920852, 0.08228040729815184, -0.22900041636633917, 0.2489356445114782, 0.648960672939708, 0.027792744885355287, -0.014857111144406234, 0.08924783068473859, -0.2988919076563644, 0.41807041591513505]
895 -0.9141246341567797 -0.8537323309414573 1.6021447479247624 0.07554835905783468 0.09360023723710698 -0.007542613988530555 0.020389181322278783 0.004889563396894329 -0.006616296298421471 -0.13142612721507196 -0.1027475862623242 -0.015943307772050302 [0.7000004457101464, -1.4940905268424204e-06, 0.0695912422503846, 0.18459728282398302, 0.3389661863148941, 0.6031490520041646, 0.6676071620173947, -0.28449108147033464, 0.1570203359165845, 0.25734786059229764, 0.4290878365433617, 0.14174408996444107, 0.5030131207306783, 0.35134029634206115, 0.0067477489543397344, 0.08002253641888218, -0.22875678414169337, 0.24363222464578974, 0.6489885766139556, 0.027903674247527325, -0.014767991616755492, 0.08911952765074217, -0.2984756570662639, 0.41625059010054466]
896 -0.9141044027106063 -0.8537273558324313 1.6021381522962423 0.07541711104681283 0.09349639362069427 -0.007570417113960989 0.020231446173359542 0.0049751090259798 -0.006595628520007223 -0.131455092893641 -0.10285321975682839 -0.015542995286773206 [0.7000004442358448, -1.474301589884583e-06, 0.06977453023394321, 0.18328798355861683, 0.33957016732234535, 0.6039810074512427, 0.6673221112797995, -0.28505073759521343, 0.1572721979039606, 0.2518619873760859, 0.4292281043521465, 0.14026780878477552, 0.5033648822526555, 0.3517615219772908, 0.006825610616610253, 0.07786166227051854, -0.22851834580456798, 0.23843833712538884, 0.6490165707614018, 0.02799414744621425, -0.014678965702981057, 0.08902591377443418, -0.2980612276961535, 0.4144293701103719]
897 -0.9140843274194518 -0.8537222964921941 1.6021315773601688 0.07528584565880195 0.09339244812291518 -0.007597816536222143 0.020075291154522633 0.005059340237181106 -0.006574936073509653 -0.13147727809517593 -0.10295132895800642 -0.015151247095307496 [0.7000004428155987, -1.420246139681794e-06, 0.0699565531643716, 0.18202293042839165, 0.3401750534683586, 0.604886146013224, 0.6670365256421977, -0.2855856376017039, 0.15751867470543587, 0.246476801475259, 0.4293668957595355, 0.13879140738901816, 0.5037170415382387, 0.35215928558319687, 0.006901410192578938, 0.07579957596868568, -0.2282850005383534, 0.23334526621456994, 0.6490446489582474, 0.02807819684563456, -0.014589998475527496, 0.08896722745356252, -0.29764862750386417, 0.41260019228931977]
898 -0.9140644067044453 -0.8537171542079496 1.602125023102469 0.07515456957093102 0.0932884079031186 -0.007624819908227736 0.019920715006474726 0.005142284244496957 -0.0065542576997742194 -0.13149272537256074 -0.10304238105380631 -0.014767790735374204 [0.700000441482165, -1.333433749755794e-06, 0.07013735946667816, 0.18080630230655656, 0.34078090423371754, 0.6058507653589489, 0.6667504291281526, -0.2860965140451044, 0.15775986310823328, 0.241188402797398, 0.4295042123343437, 0.13731657480822151, 0.5040695765353026, 0.3525349970639187, 0.006975242985774902, 0.0738327931959636, -0.2280566503468048, 0.22835019154858924, 0.6490728061010484, 0.0281571428010575, -0.01450105663131875, 0.08894184420874475, -0.2972378635300342, 0.410763973830015]
899 -0.914044638985109 -0.8537119302421361 1.6021184894965526 0.0750232892389418 0.09318427988186176 -0.00765143462158787 0.01976771933627648 0.005223965813519228 -0.006533605916598276 -0.1315016567710452 -0.10312661272371364 -0.014392341301072125 [0.7000004402719927, -1.2101723427830266e-06, 0.07031700059892465, 0.17964113224648795, 0.34138776699306334, 0.606862759345815, 0.6664638450544159, -0.28658407373669686, 0.15799585686618137, 0.23599375794808652, 0.4296400568115016, 0.13584447715784725, 0.5044224658917957, 0.35288935649308684, 0.007047200484831986, 0.07195749905708426, -0.22783319956949663, 0.22345077730816734, 0.6491010373476767, 0.028231246628224564, -0.014412108676017438, 0.08894795530131344, -0.29682894135274995, 0.4089221772842022]
900 -0.9140250226806971 -0.8537066258341296 1.6021119765047833 0.07489201087409718 0.0930800707761247 -0.007677667823898542 0.01961630441195331 0.005304408006475047 -0.006512991769130169 -0.13150431708677074 -0.10320422525080013 -0.014024629145392657 [0.7000004392667178, -1.0052749017525064e-06, 0.07049553006101576, 0.17852946209111156, 0.34199567882525606, 0.6079118321927207, 0.666176796066929, -0.287048987486857, 0.15822674706947026, 0.23089020328890586, 0.4297744329399976, 0.13437612849603442, 0.5047756888971182, 0.35322300532250156, 0.007117370310836031, 0.07016982600404494, -0.2276145548599674, 0.21864470952923076, 0.6491293380015378, 0.028300653861114092, -0.014323124867350054, 0.08898380866738424, -0.29642186515539337, 0.40707619735658834]
901 -0.9140055562128137 -0.8537012422022021 1.602105484081166 0.07476074044198801 0.09297578707380873 -0.007703526432716135 0.019466467883445467 0.005383631927471698 -0.00649242361740569 -0.1315009525273362 -0.10327544540033623 -0.013664398611395664 [0.7000004385306343, -7.360835709907185e-07, 0.07067300264333774, 0.17747258232198582, 0.34260466806982054, 0.6089892445644821, 0.6658893040827294, -0.28749198419962035, 0.1584526223779778, 0.22587530850753368, 0.4299073452458059, 0.13291230580828178, 0.5051292255058103, 0.3535366086921346, 0.007185836376407627, 0.06846606557159655, -0.22740062513891302, 0.21392972105439637, 0.6491577035379026, 0.028365536364785258, -0.014234077213010825, 0.0890476543392285, -0.2960166377977885, 0.4052273576048718]
902 -0.9139862380066077 -0.8536957805444817 1.6020990121711831 0.07462948366301207 0.09287143504403458 -0.007729017148737973 0.01931820620595003 0.005461657720472863 -0.006471909982792665 -0.13149180877432481 -0.10334048963334992 -0.013311407395637556 [0.7000004381297102, -4.00924085808968e-07, 0.07084947378331091, 0.17647113997316424, 0.3432147556306527, 0.6100875608321616, 0.6656013903178079, -0.28791376492158804, 0.15867356926699122, 0.22094688901340576, 0.43003879890561414, 0.1314536598082098, 0.5054830563262325, 0.35383082042212166, 0.007252678946388712, 0.06684256998108432, -0.22719132157297714, 0.20930356593586447, 0.6491861295908097, 0.028426052907119304, -0.01414493940989269, 0.08913780311813659, -0.2956132609044532, 0.40337689333523413]
903 -0.9139670664913427 -0.853690242039392 1.602092560710773 0.07449824601674751 0.0927670207590856 -0.007754146467737018 0.019171515264960158 0.0055385050896965245 -0.006451460410016093 -0.13147712701347697 -0.10339955249146997 -0.012965425661514946 [0.700000438168074, 3.836377858099094e-08, 0.07102499899959856, 0.17552521628764656, 0.34382595611107086, 0.6112004804181708, 0.6653130753467257, -0.2883149710821624, 0.1588896722837443, 0.2161030167530661, 0.43016879964554167, 0.1300007399275111, 0.5058371625936868, 0.3541062674543148, 0.007317974672112875, 0.06529572572416344, -0.22698655756073063, 0.2047640122464963, 0.6492146119301389, 0.028482339329173365, -0.014055686766329312, 0.0892526435633778, -0.2952117349559768, 0.40152594847644507]
904 -0.9139480401008524 -0.8536846278458252 1.6020861296256927 0.07436703275233983 0.09266255011611814 -0.007778920690993342 0.019026390490299156 0.005614193566770424 -0.0064310850802865045 -0.13145713794643601 -0.10345280687692349 -0.012626235088050643 [0.7000004388137709, 6.456969710516916e-07, 0.07119963332271301, 0.17463432311444357, 0.34443827893908036, 0.6123228280095047, 0.665024379167002, -0.28869617972371914, 0.1591010143528564, 0.21134206911210024, 0.4302973535886969, 0.12855394315526844, 0.5061915261328619, 0.35436353917502916, 0.007381796625880807, 0.06382195376793123, -0.2267862487226135, 0.20030883811715214, 0.6492431464444859, 0.028534514347013238, -0.01396629613654023, 0.08939062978908281, -0.2948120593792753, 0.39967557670149817]
905 -0.9139291572737925 -0.8536789391030124 1.6020797188300406 0.07423584890610091 0.09255802887552227 -0.007803345935875341 0.018882827059871946 0.005688742812843607 -0.006410795652194604 -0.13143205447574977 -0.10350038745958205 -0.012293629677873915 [0.7000004403472652, 1.533494178793983e-06, 0.0713734304781034, 0.1737971553903955, 0.3450517298059385, 0.6134508668581452, 0.6647353213127057, -0.28905785429624814, 0.15930767726625739, 0.20666291340098267, 0.4304244670193111, 0.1271134306141662, 0.5065461292900884, 0.354603157226431, 0.007444214244167425, 0.06241761828661876, -0.2265903129336462, 0.19593578896727923, 0.6492717291132855, 0.028582668799558217, -0.01387674586101603, 0.08955027552419928, -0.2944142326677614, 0.39782671151388777]
906 -0.913910406170902 -0.8536731844849483 1.6020733223837367 0.07410462358429766 0.09245344406600799 -0.00782747780701562 0.018751102890461575 0.005754618064119149 -0.0063964463039137085 -0.13147762870381718 -0.1035604307583183 -0.012010081637755217 [0.7000004291793698, -1.1167895369769074e-05, 0.07154422246894197, 0.17079199083856886, 0.3456634363656196, 0.6117065596810797, 0.664445865531863, -0.2894557808427645, 0.15951053886080566, 0.2028615945482626, 0.43055005817023534, 0.12559115092426398, 0.5069010910613478, 0.35496177125949774, 0.007505190660704893, 0.06097641653746774, -0.22639846857594736, 0.19184435769884678, 0.6493003345245429, 0.02860541125753305, -0.013787055781703809, 0.0896900793122213, -0.2940181525805551, 0.3960800872062947]
