sim_time x y z roll pitch yaw vx vy vz wx wy wz [pi wi]
5940 -0.9066913593616382 -1.447107613877407 1.5097806901647643 0.03646003523059413 -0.008910935828059708 0.0014367492501535595 8.721886040624479e-05 0.000167636687026665 -0.0003580452571351504 -0.00472809785902794 0.0019554732119804546 0.00028903967649588746 [0.7000123197170588, 0.012347925461403229, -0.10639560033002861, 0.008190211642521338, 0.2900163415825796, 0.016748144129424804, 0.7000004155750377, 7.497214975625186e-05, 0.00421502994607199, 0.002632076045984015, 0.5223929334710014, -0.0002926398153300468, 0.597452272901834, 0.0049971491842693335, -0.09416553881019162, -0.006324453470741679, -0.2949379111558181, -0.005534655475918287, 0.6613405886990557, -0.006010046051094201, -0.0315279530739041, -0.006843862868450946, -0.2120374880498029, 0.004526284954730319]
5941 -0.9066913513369061 -1.4471076517694899 1.5097807253875235 0.03646060622091519 -0.008911409536889776 0.0014366949719894291 8.024732065971323e-06 -3.789208270702605e-05 3.522275919315941e-05 0.0005716476487315257 -0.0004728880195903171 -4.919003812118867e-05 [0.7000098464291017, -0.002473287957157457, -0.10639562978852193, -2.9458493330971128e-05, 0.2900149353468561, -0.001406235723511496, 0.7000002934657737, -0.00012210926389612036, 0.004214401465845278, -0.0006284802267125531, 0.5223938217692028, 0.0008882982014540442, 0.5974521137324534, -0.00015916938052763265, -0.09416524978275459, 0.00028902743703146383, -0.2949370749342175, 0.000836221600548164, 0.6613417152189691, 0.0011265199135090734, -0.031528001428587846, -4.8354683740273185e-05, -0.21203770415353754, -0.00021610373463241527]
5942 -0.9066913683986519 -1.4471077009188542 1.5097807854843897 0.0364613685162849 -0.00891171602216014 0.0014366746530476155 -1.7061745753312773e-05 -4.914936435148069e-05 6.00968661571531e-05 0.0007627046366151589 -0.0003053898197484259 -1.3525788684544448e-05 [0.7000078946493298, -0.0019517797718711322, -0.10639635870830029, -0.0007289197783527103, 0.29001293401685724, -0.002001329998822971, 0.7000002514597471, -4.20060266270653e-05, 0.004213616879357167, -0.0007845864881106114, 0.5223942833164525, 0.00046154724972260396, 0.5974512947140097, -0.0008190184437235335, -0.09416499885977081, 0.0002509229837789165, -0.29493628041428666, 0.0007945199308290129, 0.6613426182236296, 0.0009030046604878553, -0.03152815161645904, -0.00015018787119398428, -0.21203832363858832, -0.0006194850507884193]
5943 -0.9066913817535723 -1.4471077425058205 1.5097808368939845 0.03646205363558941 -0.008911960838653284 0.0014366709129191525 -1.3354920429376386e-05 -4.158696638399727e-05 5.140959473559398e-05 0.0006854431123574077 -0.00024383198765762747 2.3654632654785403e-06 [0.7000062957405861, -0.0015989087436700672, -0.10639729191485156, -0.000933206551269058, 0.29001117591108877, -0.0017581057684541103, 0.7000002541409955, 2.6812484285358506e-06, 0.004212746181388473, -0.0008706979686939739, 0.5223948227303019, 0.0005394138493164608, 0.5974505244567122, -0.0007702572974596838, -0.09416487686665956, 0.00012199311125221543, -0.2949355782756647, 0.0007021386219696862, 0.6613433884453785, 0.0007702217489360979, -0.031528380815003455, -0.00022919854441530105, -0.21203882509158323, -0.000501452994917027]
5944 -0.9066913921632945 -1.4471077760012496 1.509780878547388 0.03646262768883246 -0.008912154980093285 0.0014366786957802987 -1.0409722152926316e-05 -3.3495428991358425e-05 4.165340357964605e-05 0.0005743087717932009 -0.00019331654484604774 1.2898789168368855e-05 [0.7000050039852778, -0.0012917553083322641, -0.10639823949892008, -0.000947584068523116, 0.29000974075583164, -0.0014351552571271516, 0.7000002697461029, 1.5605107307412214e-05, 0.004211804914291043, -0.0009412670974300423, 0.5223954009041449, 0.0005781738429938945, 0.5974498726813297, -0.0006517753825860425, -0.09416486031456778, 1.655209177756622e-05, -0.29493502546694184, 0.000552808722868375, 0.6613440198139989, 0.0006313686203588162, -0.03152863244447402, -0.00025162947056557274, -0.2120392040303225, -0.00037893873927643607]
5945 -0.9066914004848047 -1.4471078030891307 1.5097809119624708 0.03646309815567427 -0.008912307681811482 0.0014366935083080774 -8.32151016665392e-06 -2.708788107515352e-05 3.3415082800247525e-05 0.0004706670566877769 -0.00015202567450756763 1.9005381601288646e-05 [0.7000039603076362, -0.0010436776415496559, -0.10639913438676761, -0.0008948878475379473, 0.290008620979862, -0.0011197759696162438, 0.7000002851680833, 1.5421980480024706e-05, 0.004210820847306887, -0.000984066984156331, 0.522395998167529, 0.0005972633840774695, 0.5974493364226641, -0.0005362586656049008, -0.09416491853212822, -5.821756043800835e-05, -0.29493460157237195, 0.00042389456991417316, 0.6613445282348582, 0.0005084208593322365, -0.03152889931727372, -0.00026687279969737844, -0.21203947098523854, -0.00026695491602416924]
5946 -0.9066914071081332 -1.4471078251104492 1.5097809386310044 0.03646348193637341 -0.008912427285137468 0.001436712218733413 -6.62332855002178e-06 -2.2021318454010888e-05 2.6668533577762143e-05 0.0003839368956474186 -0.00011905184580677177 2.2130774678514493e-05 [0.7000031180011725, -0.0008423064636661069, -0.1063999507573191, -0.0008163705514889128, 0.29000777874952754, -0.0008422303344967359, 0.7000002987703001, 1.3602216771395304e-05, 0.004209823823593746, -0.0009970237131405068, 0.5223965995742246, 0.0006014066955559647, 0.59744889797377, -0.0004384488940324612, -0.09416503343159893, -0.00011489947071620377, -0.29493428122106613, 0.0003203513057949388, 0.6613449359191331, 0.0004076842749167201, -0.03152917345971305, -0.00027414243933090174, -0.2120396507289556, -0.00017974371705191714]
5947 -0.9066914123540745 -1.4471078431406728 1.5097809598366194 0.03646379456465866 -0.008912520499549118 0.0014367329311168065 -5.245941263525733e-06 -1.8030223622602862e-05 2.1205615051825494e-05 0.00031274946951132486 -9.276517332232829e-05 2.3498637936861354e-05 [0.7000024390062923, -0.0006789948801930027, -0.10640068231885444, -0.0007315615353339292, 0.29000717368935053, -0.0006050601770023558, 0.7000003100898171, 1.1319516938809793e-05, 0.004208830748249387, -0.0009930753443586123, 0.5223971971082263, 0.0005975340016941632, 0.5974485402902062, -0.00035768356374206255, -0.09416519105934364, -0.00015762774470211505, -0.29493404287776587, 0.00023834330025332748, 0.6613452619416909, 0.00032602255775716183, -0.0315294500728661, -0.0002766131530523389, -0.21203976274740438, -0.00011201844879113411]
5948 -0.9066914164880363 -1.447107858016298 1.5097809766397596 0.03646404929118391 -0.008912592690882607 0.0014367545850348035 -4.13396184808683e-06 -1.4875625272940948e-05 1.6803140293938923e-05 0.00025481986591316353 -7.182529689305171e-05 2.3924152514155124e-05 [0.7000018922997919, -0.0005467065004475483, -0.10640133321750807, -0.0006508986536218741, 0.2900067673351291, -0.0004063542214289758, 0.7000003190978895, 9.008072429477764e-06, 0.00420784944735418, -0.0009813008952071682, 0.5223977872156534, 0.0005901074271351967, 0.5974482485939411, -0.000291696265122287, -0.09416538124590447, -0.00019018656083528117, -0.29493386953782247, 0.00017333994338761182, 0.6613455220846396, 0.0002601429487368681, -0.03152972657265576, -0.0002764997896513072, -0.21203982194629614, -5.9198891757005056e-05]
5949 -0.9066914197279122 -1.447107870387039 1.5097809899050327 0.036464257177728096 -0.008912648132958952 0.001436776641000256 -3.239875944560408e-06 -1.237074104402888e-05 1.3265273036877547e-05 0.00020795773018694475 -5.514334684495252e-05 2.3908754779253904e-05 [0.7000014525873047, -0.000439712487144665, -0.10640191278348504, -0.0005795659769768091, 0.29000652489320805, -0.0002424419210320658, 0.7000003259908303, 6.892940740091096e-06, 0.0042068822366371815, -0.0009672107169987685, 0.5223983690134554, 0.0005817978019876113, 0.5974480104261871, -0.00023816775401600714, -0.09416559657442534, -0.00021532852087319883, -0.2949337478919667, 0.00012164585580481786, 0.6613457292533547, 0.00020716871508751278, -0.031530001756922645, -0.0002751842668893735, -0.21203983968662637, -1.7740330232183046e-05]
5950 -0.9066914222508377 -1.4471078807607505 1.5097810003322132 0.03646442734510434 -0.008912690218742244 0.001436798857504674 -2.5229254130192253e-06 -1.0373711476712139e-05 1.0427180393072794e-05 0.00017022091029759865 -4.184125524205779e-05 2.3733129868616923e-05 [0.7000010992593138, -0.0003533279909694368, -0.10640243214638845, -0.0005193629034030498, 0.29000641604173194, -0.00010885147612339045, 0.7000003310771601, 5.0863298128375174e-06, 0.004205928506249267, -0.0009537303879150829, 0.5223989430390087, 0.0005740255533086887, 0.5974478154398416, -0.00019498634548377022, -0.0941658315730239, -0.00023499859854649556, -0.2949336674833953, 8.040857143541873e-05, 0.6613458939245549, 0.0001646712002614381, -0.031530275238129624, -0.0002734812069779301, -0.21203982467238913, 1.5014237254703597e-05]
5951 -0.9066914241996549 -1.4471078895376621 1.5097810084848153 0.03646456724033811 -0.008912721638731845 0.0014368211461047282 -1.9488172613413303e-06 -8.776911621099998e-06 8.152602182844373e-06 0.00013993467757190254 -3.121896235523713e-05 2.353542862564532e-05 [0.7000008155550471, -0.00028370426663936854, -0.10640290222047295, -0.0004700740845089118, 0.29000641512097197, -9.207599676233213e-07, 0.7000003346999542, 3.6227940323994563e-06, 0.004204986388201417, -0.0009421180478499807, 0.5223995104364277, 0.0005673974190847279, 0.5974476551420378, -0.00016029780386095791, -0.09416608213229345, -0.00025055926955259864, -0.294933620044272, 4.7439123294901664e-05, 0.6613460245563171, 0.00013063176213955283, -0.03153054705902353, -0.0002718208939044915, -0.2120397836341013, 4.103828783294498e-05]
5952 -0.9066914256889238 -1.4471078970356333 1.5097810148151032 0.0364646828954754 -0.008912744528108175 0.0014368434855992734 -1.489268903694081e-06 -7.497971239982502e-06 6.330287958588102e-06 0.00011568331249646861 -2.272318232155494e-05 2.3370284266379385e-05 [0.7000005878785341, -0.0002276765130187863, -0.10640333268568974, -0.0004304652167872185, 0.2900065009054808, 8.578450881560394e-05, 0.7000003371868131, 2.4868588895446372e-06, 0.004204053716460056, -0.0009326717413604633, 0.5224000724792613, 0.000562042833585811, 0.5974475226290559, -0.00013251298190085345, -0.09416634510108222, -0.0002629687887655602, -0.2949335989978891, 2.1046382857690905e-05, 0.6613461279487008, 0.000103392383735817, -0.03153081744890802, -0.0002703898844862627, -0.2120397218323883, 6.180171299758106e-05]
5953 -0.9066914268102438 -1.4471079035086691 1.509781019685347 0.03646477916663196 -0.008912760584955375 0.001436865876581997 -1.1213200847402934e-06 -6.473035782696673e-06 4.870243745170883e-06 9.629030478296413e-05 -1.59185085064082e-05 2.3249012359659625e-05 [0.7000004052308951, -0.00018264763899241017, -0.10640373162319164, -0.0003989375018903967, 0.29000665613088333, 0.00015522540254141756, 0.700000338823004, 1.6361909099835497e-06, 0.004203128502827451, -0.0009252136326049491, 0.522400630328996, 0.0005578497346350152, 0.5974474123312307, -0.0001102978251928644, -0.09416661801368822, -0.0002729126060055262, -0.29493359908769073, -8.980159820207374e-08, 0.6613462095531876, 8.160448671338907e-05, -0.03153108668396829, -0.00026923506027217147, -0.2120396434210303, 7.841135802196709e-05]
5954 -0.9066914276367758 -1.4471079091606036 1.5097810233854856 0.03646485994649055 -0.008912771163418702 0.0014368883209078876 -8.265319997592214e-07 -5.651934425307659e-06 3.700138680824347e-06 8.07917667083121e-05 -1.046238633018275e-05 2.3164288326116086e-05 [0.7000002587366941, -0.000146494200976544, -0.10640410552835562, -0.0003739051639845764, 0.2900068669165105, 0.00021078562716799512, 0.700000339841601, 1.0185969653041337e-06, 0.004202209116381917, -0.0009193864455334452, 0.5224011849419844, 0.0005546129884264989, 0.5974473197795365, -9.255169415963688e-05, -0.09416689890846981, -0.00028089478158442116, -0.29493361609866575, -1.7010975004754062e-05, 0.6613462737326233, 6.41794357422995e-05, -0.031531355018167305, -0.00026833419901109353, -0.21203955170720154, 9.171382876634694e-05]
5955 -0.9066914282269662 -1.4471079141553893 1.509781026147553 0.03646492834710928 -0.008912777346303828 0.0014369108148802165 -5.901904553774813e-07 -4.9947856593846925e-06 2.7620674044935654e-06 6.840671553539786e-05 -6.084597857468542e-06 2.3103603530759557e-05 [0.7000001412493668, -0.00011748732734475598, -0.10640445950473039, -0.00035397637476780824, 0.2900071221819123, 0.0002552654018340097, 0.700000340424298, 5.82696973771339e-07, 0.004201294303288276, -0.0009148130936413371, 0.5224017370587134, 0.0005521167290380535, 0.5974472414007052, -7.837883127351336e-05, -0.09416718620679279, -0.00028729832298581557, -0.2949336466449725, -3.054630673871852e-05, 0.661346323975723, 5.024309963070363e-05, -0.03153162265725327, -0.00026763908596454735, -0.21203944933956992, 0.00010236763161084475]
5956 -0.9066914286275524 -1.4471079186250042 1.5097810281573154 0.03646498685305573 -0.00891278000145848 0.00143693334893954 -4.005861223220709e-07 -4.469614861401591e-06 2.0097622902425123e-06 5.85073775381335e-05 -2.571086792284966e-06 2.305550297159988e-05 [0.7000000470242058, -9.422516096071503e-05, -0.10640479751635049, -0.0003380116200996237, 0.29000741311412165, 0.0002909322093261997, 0.7000003407077453, 2.834473133769175e-07, 0.004200383135325962, -0.0009111679623147037, 0.5224022872312253, 0.0005501725118798827, 0.597447174343257, -6.7057448156706e-05, -0.09416747863013304, -0.0002924233402482993, -0.2949336880052043, -4.136023180697647e-05, 0.6613463630716413, 3.9095918331904936e-05, -0.03153188975592858, -0.00026709867530802137, -0.21203933844690115, 0.00011089266876227395]
5957 -0.9066914288759557 -1.4471079226756576 1.5097810295635867 0.03646503744708717 -0.008912779825657732 0.001436955909709104 -2.484033110145617e-07 -4.050653461129495e-06 1.406271411133822e-06 5.05917170877327e-05 2.48498472665312e-07 2.3011697061038333e-05 [0.6999999714491146, -7.557509113658079e-05, -0.10640512263234297, -0.00032511599249043116, 0.29000773271100155, 0.00031959687990514826, 0.7000003407918769, 8.413156624661038e-08, 0.004199474937669574, -0.0009081976563876515, 0.5224028358625444, 0.0005486313191779572, 0.5974471163334717, -5.800978527734702e-05, -0.09416777514070185, -0.00029651056880270567, -0.29493373799250494, -4.998730062296663e-05, 0.6613463932506445, 3.0179003232058423e-05, -0.031532156425286374, -0.00026666935779509344, -0.21203922074280904, 0.00011770409212519499]
5958 -0.906691341623669 -1.4471077550656628 1.5097806715340243 0.03646031205117852 -0.008910817650739627 0.001437286647597608 8.725228664670466e-05 0.00016760999485547807 -0.000358029562440815 -0.0047280232668663255 0.0019553821968415794 0.00028862666862543643 [0.7000123194603624, 0.012348011247705659, -0.10639692800876481, 0.008194623578166903, 0.2900244839182716, 0.016751207270060922, 0.7000004159158728, 7.512399589054972e-05, 0.004202111789832071, 0.0026368521624972846, 0.5224025416951277, -0.00029416741680409907, 0.5974521132643812, 0.004996930909538584, -0.09417409875157093, -0.0063236108690772974, -0.2949392704950052, -0.005532502500216539, 0.661340383389924, -0.006009860720479804, -0.031538997534522134, -0.0068411092357606096, -0.21203469520429233, 0.004525538516707514]
5959 -0.9066913335259378 -1.4471077929945515 1.509780706755862 0.03646088287629197 -0.008911291460005619 0.001437231975602172 8.097731295182288e-06 -3.7928888659914244e-05 3.522183758403316e-05 0.0005714828468454244 -0.0004729883857616166 -4.958540902720419e-05 [0.700009846174899, -0.002473285463276801, -0.10639695117335776, -2.3164592957904996e-05, 0.29002308315425407, -0.0014007640175469922, 0.7000002937717853, -0.00012214408752977263, 0.004201487746621726, -0.0006240432103454645, 0.522403429273332, 0.0008875782043763505, 0.5974519541428912, -0.00015912148994424741, -0.09417380758797461, 0.0002911635963105917, -0.2949384316820325, 0.0008388129727059926, 0.6613415098976341, 0.0011265077101086617, -0.03153904449154559, -4.6957023460227065e-05, -0.2120349107186633, -0.0002155143709637944]
5960 -0.9066913505847073 -1.4471078421866357 1.5097807668649608 0.03646164509382559 -0.008911597995915493 0.0014372113482022482 -1.7058769546080486e-05 -4.919208419351958e-05 6.0109098768780294e-05 0.0007626270412167482 -0.0003054401616067661 -1.3835030404216192e-05 [0.7000078943504523, -0.0019518244467558177, -0.10639767439153022, -0.0007232181724587669, 0.290021085307306, -0.0019978469480560123, 0.7000002517360329, -4.203575240896425e-05, 0.004200706858365718, -0.000780888256007773, 0.5224038891922328, 0.0004599189007028056, 0.597451135020224, -0.0008191226672109279, -0.09417355535518022, 0.0002522327943918712, -0.2949376359977868, 0.0007956842457221772, 0.6613424128915582, 0.000902993924067407, -0.03153919375795788, -0.00014926641228892558, -0.21203553072618964, -0.000620007526356852]
5961 -0.9066913639382495 -1.4471078838128895 1.5097808182850623 0.036462330171343926 -0.008911842884663831 0.001437207329562427 -1.3353542212667207e-05 -4.1626253874674705e-05 5.142010147560997e-05 0.0006854015632686494 -0.0002439039350513968 2.086498690772274e-06 [0.7000062953999177, -0.0015989505346904354, -0.1063986026979487, -0.000928306418466827, 0.2900193302796501, -0.001755027655947558, 0.7000002544059094, 2.66987653319028e-06, 0.004199839485937813, -0.0008673724279055493, 0.5224044271592317, 0.0005379669989112869, 0.5974503646629598, -0.0007703572641589661, -0.09417343225273117, 0.00012310244905250857, -0.2949369328211174, 0.0007031766693901764, 0.6613431831788337, 0.0007702872755343134, -0.03153942220360614, -0.00022844564826906178, -0.21203603272916255, -0.0005020029729155693]
5962 -0.9066913743462981 -1.4471079173455004 1.5097808599480942 0.03646290419064422 -0.008912037098973539 0.0014372148486537855 -1.0408048692614647e-05 -3.353261089983433e-05 4.166303202077465e-05 0.0005742750394279912 -0.00019338915526170158 1.2634649200534718e-05 [0.700005003613325, -0.0012917865927272185, -0.10639954570466055, -0.0009430067118619275, 0.2900178980523466, -0.0014322273034808556, 0.7000002700031135, 1.559720410996618e-05, 0.00419890132716776, -0.0009381587700534509, 0.5224050039869248, 0.0005768276930905466, 0.5974497127861339, -0.0006518768258844275, -0.0941734147269733, 1.7525757867754575e-05, -0.2949363790468663, 0.0005537742510871328, 0.6613438146213403, 0.0006314425066543296, -0.03153967316606665, -0.00025096246050954616, -0.2120364122058948, -0.00037947673225450953]
5963 -0.9066913826661559 -1.4471079444699197 1.5097808933722205 0.03646337461884967 -0.008912189866524318 0.0014372294030774327 -8.31985780058442e-06 -2.7124419466349608e-05 3.342412631646358e-05 0.000470628598483765 -0.00015209131025682173 1.874687770076023e-05 [0.7000039599186642, -0.0010436946608145675, -0.10640043607753585, -0.0008903728753043941, 0.29001678118369506, -0.0011168686515407415, 0.7000002854204779, 1.5417364428989398e-05, 0.0041979202939638185, -0.0009810332039412136, 0.5224055999547335, 0.0005959678086137304, 0.5974491764337837, -0.0005363523501929348, -0.09417347200130088, -5.7274327582303346e-05, -0.2949359542037231, 0.0004248431432149772, 0.661344323103302, 0.0005084819617166929, -0.03153993942072475, -0.00026625465809762707, -0.2120366796709036, -0.0002674650087811755]
5964 -0.9066913892876658 -1.4471079665275863 1.5097809200493082 0.03646375835572919 -0.0089123095321444 0.0014372478554128053 -6.6215099467325026e-06 -2.2057666514326846e-05 2.6677087660807557e-05 0.0003838932315211895 -0.00011911399711055302 2.18722489880905e-05 [0.7000031176063837, -0.0008423122804846633, -0.10640124789862264, -0.0008118210867878333, 0.2900159418868029, -0.0008392968921589754, 0.7000002990199243, 1.359944650111681e-05, 0.004196926304245226, -0.0009939897185925757, 0.5224062000737695, 0.0006001190360280863, 0.5974487378999794, -0.00043853380425512946, -0.0941735859723567, -0.00011397105581496312, -0.2949356329113811, 0.0003212923419878556, 0.6613447308410031, 0.0004077377010462881, -0.03154021296415864, -0.000273543433887079, -0.21203685992029342, -0.00018024938983326701]
5965 -0.9066913945316745 -1.4471079845942607 1.509780941263131 0.03646407093458646 -0.008912402807154282 0.0014372683074499782 -5.244008724741811e-06 -1.8066674323244256e-05 2.12138227440907e-05 0.0003127001806669496 -9.282567505261664e-05 2.323781440134086e-05 [0.7000024386137874, -0.000678992596244239, -0.1064019748416492, -0.0007269430265717023, 0.29001533980405364, -0.0006020827492545968, 0.7000003103359624, 1.1316038053979699e-05, 0.004195936290276831, -0.0009900139683953126, 0.5224067963110708, 0.0005962373012633837, 0.5974483801409312, -0.00035775904828717474, -0.09417374267596086, -0.00015670360415923475, -0.29493539362942467, 0.00023928195644015585, 0.6613450569113043, 0.0003260703012248708, -0.03154048898494444, -0.00027602078579956304, -0.21203697244669165, -0.00011252639823006597]
5966 -0.906691398663638 -1.4471079995065312 1.509780958074259 0.036464325607040694 -0.008912475058514608 0.001437289698344397 -4.131963542603688e-06 -1.491227044932922e-05 1.6811128143067594e-05 0.0002547659220863366 -7.188526499031731e-05 2.3660617066923702e-05 [0.7000018919154912, -0.0005466982961915001, -0.10640262105169146, -0.0006462100422550995, 0.29001493646971954, -0.0004033343340895794, 0.700000319338924, 9.002961566109905e-06, 0.004194958083164058, -0.0009782071127733814, 0.5224073851080608, 0.0005887969901042143, 0.5974480883773702, -0.000291763561029427, -0.09417393193835152, -0.00018926239065812411, -0.29493521935127454, 0.0001742781501398998, 0.6613453170983217, 0.0002601870173937121, -0.031540764893308454, -0.00027590836401598733, -0.21203703215840852, -5.971171686983255e-05]
5967 -0.9066914019014887 -1.4471080119141013 1.5097809713474009 0.03646453343636651 -0.008912530560657514 0.0014373114890982883 -3.2378506860827153e-06 -1.2407570018446634e-05 1.3273141917811548e-05 0.00020790063023743305 -5.520338433156739e-05 2.3643008820060575e-05 [0.7000014522153524, -0.00043970013881843186, -0.10640319587367586, -0.0005748219844036988, 0.2900146970796751, -0.00023939004447521818, 0.7000003262251226, 6.886198622122655e-06, 0.004193993992685348, -0.0009640904787097122, 0.5224079655833188, 0.0005804752579652032, 0.5974478501484851, -0.00023822888509755696, -0.09417414634152337, -0.00021440317184147036, -0.2949350967673522, 0.00012258392232987263, 0.66134552430916, 0.00020721083839312385, -0.031541039485138936, -0.00027459183047848787, -0.21203705041663246, -1.8258223925592194e-05]
5968 -0.9066914044223886 -1.4471080223247719 1.5097809817824017 0.03646470354486357 -0.008912572706807051 0.0014373334390124922 -2.5208999884054055e-06 -1.0410670641239977e-05 1.043500081854493e-05 0.00017016214281554294 -4.190161503487537e-05 2.3465994895924426e-05 [0.7000010989023433, -0.0003533130090887958, -0.10640371045666179, -0.0005145829859310398, 0.29001459129918894, -0.00010578048614389167, 0.7000003313035278, 5.078405124994021e-06, 0.004193043399174337, -0.0009505935110106117, 0.5224085382783941, 0.0005726950751962083, 0.5974476551050993, -0.00019504338576834595, -0.0941743804139888, -0.00023407246543437834, -0.29493501542126505, 8.13460871614432e-05, 0.6613456890218444, 0.00016471268435916137, -0.031541312372890255, -0.000272887751318772, -0.21203703592440265, 1.4492229814027271e-05]
5969 -0.906691406369196 -1.4471080311387094 1.5097809899428187 0.036464843380767234 -0.00891260418750944 0.001437355460447555 -1.946807362378386e-06 -8.813937604760825e-06 8.160416914828727e-06 0.00013987545397629782 -3.127968556348602e-05 2.32677184224418e-05 [0.7000008152144536, -0.00028368788968380885, -0.10640417573314614, -0.0004652764843499541, 0.290014593456773, 2.157584035339757e-06, 0.700000334917794, 3.6142661895740803e-06, 0.004192104424901192, -0.0009389742731457256, 0.5224091043419332, 0.0005660635391657378, 0.5974474947526099, -0.00016035248943176055, -0.09417463004731964, -0.0002496333308358991, -0.29493496704580996, 4.8375455076857284e-05, 0.6613458196953239, 0.00013067347951023302, -0.0315415836001083, -0.0002712272180443455, -0.21203699541091642, 4.051348624434955e-05]
5970 -0.9066914078564777 -1.4471080386737163 1.509780996280937 0.036464958976975693 -0.008912627137881764 0.0014373775328565595 -1.4872817671391937e-06 -7.535006843403081e-06 6.3381182401583795e-06 0.0001156244859908978 -2.278420115671502e-05 2.310265994274792e-05 [0.7000005875547581, -0.0002276596954094201, -0.10640460139760807, -0.0004256644619279853, 0.29001468231777866, 8.886100566883769e-05, 0.7000003373960517, 2.478257713028089e-06, 0.00419117489592169, -0.0009295289795022268, 0.5224096650513255, 0.0005607093922294706, 0.5974473621860324, -0.0001325665775160311, -0.0941748920914031, -0.0002620440834549488, -0.2949349450648927, 2.1980917246297386e-05, 0.6613459231301617, 0.00010343483778237727, -0.0315418533970575, -0.00026979694920153697, -0.21203693413553035, 6.127538608019406e-05]
5971 -0.9066914089758353 -1.4471080451837515 1.5097810011590336 0.03646505519012804 -0.008912643255904896 0.001437399657305215 -1.1193575934778628e-06 -6.510035254659674e-06 4.878096492074791e-06 9.623239948022738e-05 -1.5979716329461138e-05 2.2981950031060977e-05 [0.7000004049236995, -0.00018263105856785488, -0.10640499554162175, -0.00039414401367537553, 0.29001484061135496, 0.0001582935762979184, 0.700000339023967, 1.6279152022036182e-06, 0.004190252818358379, -0.0009220775633113146, 0.5224102215708768, 0.0005565195513854111, 0.5974472518348866, -0.00011035114589284732, -0.09417516408140335, -0.0002719900002432579, -0.29493494422246436, 8.424283282314035e-07, 0.6613460047780718, 8.164791007221508e-05, -0.03154212204073693, -0.00026864367942838085, -0.21203685625098048, 7.788454986724678e-05]
5972 -0.9066914098004284 -1.447108050872615 1.509781004867046 0.03646513591317236 -0.008912653895617711 0.0014374218359585 -8.245930487316987e-07 -5.68886355367226e-06 3.7080122544034914e-06 8.07350484620326e-05 -1.0523674303796758e-05 2.2898099886099758e-05 [0.7000002584453989, -0.0001464783006246195, -0.10640536466743986, -0.000369125818104838, 0.2900150544526731, 0.00021384131813625564, 0.7000003400348697, 1.010902690170718e-06, 0.004189336557592857, -0.0009162607655215633, 0.5224107748587913, 0.0005532879144644104, 0.5974471592296924, -9.260519412508474e-05, -0.09417544405630811, -0.0002799749047658157, -0.29493496030390154, -1.6081437207465304e-05, 0.6613460690019507, 6.422387885908376e-05, -0.03154238978568161, -0.00026774494468233495, -0.21203676506365074, 9.118732974992204e-05]
5973 -0.9066914103887012 -1.4471080559042344 1.509781007637002 0.036465204258255675 -0.008912660139735464 0.0014374440653088171 -5.882727342141193e-07 -5.031619447953096e-06 2.769956045682847e-06 6.835127370926491e-05 -6.145873761897398e-06 2.2838478538600084e-05 [0.7000001409730395, -0.00011747235941341905, -0.1064057138828696, -0.0003492154297453421, 0.2900153127588209, 0.0002583061478181021, 0.7000003406105851, 5.757154576159572e-07, 0.004188424857574215, -0.0009117000186418473, 0.5224113256566509, 0.0005507978596200119, 0.5974470807969816, -7.843271075845103e-05, -0.09417573043789874, -0.0002863815906338713, -0.2949349899236537, -2.9619752178494917e-05, 0.6613461192904575, 5.028850678432279e-05, -0.031542656837980514, -0.00026705229890755115, -0.2120366632216397, 0.00010184201104025877]
5974 -0.9066914107873882 -1.4471080604105693 1.5097810096546607 0.036465262709925735 -0.008912662856035567 0.001437466335904857 -3.986870793602154e-07 -4.506334955262342e-06 2.017658734480149e-06 5.8453192683314505e-05 -2.6322790094035068e-06 2.279154909219169e-05 [0.7000000467617997, -9.421123977588889e-05, -0.10640604715444452, -0.00033327157492465823, 0.29001560671550064, 0.00029395667971706817, 0.7000003408878039, 2.772187843970586e-07, 0.0041875167888562855, -0.0009080687179298665, 0.5224118745170738, 0.0005488604228879336, 0.5974470136852357, -6.711174593554414e-05, -0.09417602194790668, -0.0002915100079367383, -0.2949350303605365, -4.0436882808124106e-05, 0.6613461584326371, 3.9142179588668696e-05, -0.03154292335250283, -0.00026651452232213225, -0.2120365528533098, 0.00011036832990182427]
5975 -0.9066914110339089 -1.4471080644978151 1.509781011068829 0.03646531325086225 -0.008912662741241636 0.0014374886344291056 -2.465206557054195e-07 -4.087245916909502e-06 1.4141684368858959e-06 5.053871191850721e-05 1.8744236509632071e-07 2.2748972609545568e-05 [0.699999971199564, -7.55622356930832e-05, -0.10640636755271432, -0.0003203982698108058, 0.2900159293199295, 0.00032260442885279897, 0.7000003409664403, 7.86363267879213e-08, 0.004186611675983312, -0.0009051128729735745, 0.5224124218433401, 0.0005473262663073129, 0.5974469556207859, -5.8064449796122025e-05, -0.09417631754869371, -0.0002956007870344114, -0.29493507942787117, -4.9067334670014984e-05, 0.6613461886586249, 3.022598781159324e-05, -0.031543189440395525, -0.00026608789268846056, -0.21203643567198588, 0.00011718132393086759]
5976 -0.90669132375002 -1.4471078969109177 1.509780653053976 0.03646058793401134 -0.008910700654337357 0.0014378189863254853 8.728388891038436e-05 0.00016758689738487166 -0.00035801485312816363 -0.0047279451320477684 0.0019552917789257412 0.00028824193406984557 [0.7000123192258237, 0.012348026259683524, -0.10639816888642559, 0.008198666288735352, 0.29003268339328653, 0.016754073357076765, 0.7000004162174401, 7.525099986107898e-05, 0.004189252766853891, 0.0026410908705792203, 0.5224121263206947, -0.00029552264542440565, 0.5974519523578694, 0.004996737083554194, -0.09418264033680165, -0.006322788107941574, -0.29494060992991994, -0.0055305020487449955, 0.6613401789904351, -0.006009668189861276, -0.03155002787161643, -0.006838431220908164, -0.21203191078463357, 0.004524887352298636]
5977 -0.9066913155797298 -1.447107934871446 1.5097806882745393 0.036461158611915005 -0.008911174559926975 0.001437763956845202 8.17029016798946e-06 -3.7960528385559884e-05 3.522056343812502e-05 0.0005713360338743178 -0.0004730846168170197 -4.9944272389303883e-05 [0.7000098459503802, -0.0024732754435724553, -0.10639818641622052, -1.7529794938546915e-05, 0.290031287705868, -0.001395687418513267, 0.7000002940401979, -0.00012217724217593854, 0.004188632695116525, -0.0006200717373662343, 0.5224130133828784, 0.0008870621837372075, 0.597451793285982, -0.00015907188745313983, -0.0941823471232217, 0.00029321357996447105, -0.2949397686379001, 0.0008412920198465519, 0.661341305493362, 0.001126502926975777, -0.03155007348571205, -4.5614095615793306e-05, -0.21203212563242493, -0.00021484779135528403]
5978 -0.9066913326358672 -1.4471079841020154 1.5097807483948513 0.036461920752816325 -0.008911481136538316 0.0014377430515660195 -1.7056137421995327e-05 -4.9230569459414385e-05 6.0120312004668724e-05 0.0007625506337617707 -0.0003054805676063851 -1.411368163428096e-05 [0.7000078940999691, -0.0019518504110513089, -0.10639890448495949, -0.0007180687389690393, 0.2900292930151732, -0.0019946906947729687, 0.7000002519745864, -4.206561150959776e-05, 0.004187855138588525, -0.0007775565280005842, 0.5224134718446102, 0.0004584617317808889, 0.597450974077322, -0.0008192086599759374, -0.09418209368687025, 0.0002534363514439422, -0.29493897189193063, 0.0007967459694782772, 0.6613422084619028, 0.0009029685408541908, -0.03155022191363101, -0.00014842791895223697, -0.21203274608495315, -0.0006204525282206909]
5979 -0.9066913459883553 -1.4471080257638116 1.5097807998243873 0.036462605786836515 -0.00891172608829582 0.0014377387809349545 -1.3352488090171294e-05 -4.166179628269937e-05 5.142953599738317e-05 0.0006853582878628283 -0.00024396664234111248 1.8340397807985873e-06 [0.7000062951218553, -0.0015989781137794562, -0.10639982836133907, -0.0009238763795862097, 0.2900275407803503, -0.00175223482289278, 0.7000002546313857, 2.656799289239148e-06, 0.004186990773257418, -0.0008643653311069476, 0.5224140085121627, 0.0005366675525344363, 0.5974502036422973, -0.000770435024657212, -0.09418196956699748, 0.00012411987277061883, -0.2949382677718848, 0.0007041200458433922, 0.6613429787994797, 0.0007703375768084534, -0.031550449677203475, -0.00022776357246703335, -0.21203324856811478, -0.0005024831616273552]
5980 -0.9066913563951198 -1.4471080593301737 1.5097808414960783 0.036463179770263164 -0.008911920366611432 0.0014377460608834562 -1.0406764429162063e-05 -3.35663622360084e-05 4.167169109450743e-05 0.0005742393626286886 -0.00019345290754775937 1.2395119626253225e-05 [0.7000050033152213, -0.0012918066340188465, -0.10640076722342391, -0.0009388620848370006, 0.2900261112119807, -0.0014295683696538644, 0.7000002702188161, 1.5587430383193492e-05, 0.004186055430679664, -0.0009353425777540072, 0.5224145841293188, 0.0005756171561237774, 0.5974495516862227, -0.0006519560745410762, -0.0941819511435781, 1.8423419389368553e-05, -0.2949377131181229, 0.000554653761912701, 0.6613436103011734, 0.0006315016936775721, -0.031550700034296886, -0.00025035709340937565, -0.2120336285161304, -0.0003799480156142797]
5981 -0.9066913647134011 -1.447108086487493 1.5097808749282646 0.036463650163397816 -0.008912073193515384 0.0014377603811643943 -8.318281273952027e-06 -2.7157319350044013e-05 3.343218627809919e-05 0.0004705936957213162 -0.0001521504638444323 1.851236754688446e-05 [0.7000039596134932, -0.0010437017281226166, -0.10640165351453305, -0.0008862911091431418, 0.2900249969662226, -0.0011142457581273912, 0.7000002856355954, 1.541677931974988e-05, 0.004185077159088991, -0.000978271590673562, 0.5224151789260401, 0.0005947967212494453, 0.5974490152562387, -0.0005364299840324722, -0.0941820075540125, -5.6410434407090646e-05, -0.2949372874118769, 0.00042570624596480666, 0.661344118838106, 0.0005085369325532023, -0.03155096571851447, -0.00026568421758235017, -0.2120338964434542, -0.0002679273238063812]
5982 -0.9066913713331922 -1.447108108577928 1.509780901612992 0.03646403386071543 -0.00891219291538982 0.0014377785992438562 -6.619791139164303e-06 -2.2090435052301164e-05 2.6684727227244912e-05 0.00038385381574830926 -0.00011917010449364978 2.163759574220452e-05 [0.7000031173012369, -0.0008423122562355187, -0.10640246122174622, -0.0008077072131732321, 0.2900241603144588, -0.0008366517637801534, 0.7000002992358427, 1.36002474119748e-05, 0.004184085931924581, -0.0009912271644103268, 0.5224157778804177, 0.0005989543776926253, 0.5974485766523937, -0.00043860384502917877, -0.09418212067296847, -0.0001131189559637503, -0.2949369652624784, 0.0003221493984857844, 0.6613445266241359, 0.000407786029972285, -0.03155123870855803, -0.0002729900435594625, -0.2120340771509379, -0.000180707483709174]
5983 -0.9066913765753819 -1.4471081266774986 1.5097809228341552 0.03646434639484068 -0.008912286245192287 0.0014377988147774303 -5.24218966615213e-06 -1.8099570460302762e-05 2.1221163296354824e-05 0.0003126555788310349 -9.28803659619391e-05 2.3000875703507426e-05 [0.7000024383139624, -0.000678987274542224, -0.10640318398523436, -0.000722763488139167, 0.29002356091729986, -0.0005993971589394498, 0.7000003105515963, 1.1315753501290484e-05, 0.0041830987072617705, -0.0009872246628104045, 0.5224163729435093, 0.0005950630916332254, 0.5974482188318354, -0.000357820558263777, -0.0941822765274284, -0.00015585445993969695, -0.2949367251250839, 0.00024013739450332735, 0.6613448527376443, 0.0003261135083877789, -0.03155151418174458, -0.00027547318655364074, -0.2120341901376101, -0.00011298667220290517]
5984 -0.906691380705471 -1.4471081416228644 1.5097809396524389 0.03646460101821071 -0.008912358550931946 0.001437819966568654 -4.130089055584341e-06 -1.4945365834182992e-05 1.6818283627642464e-05 0.00025471695642805047 -7.193957971191361e-05 2.3421046745711002e-05 [0.7000018916251067, -0.0005466888556202007, -0.10640382594949854, -0.0006419642641763595, 0.2900231603079104, -0.0004006093894524043, 0.7000003195523051, 9.000708864741186e-06, 0.00418212332063588, -0.0009753866258902164, 0.5224169605524882, 0.0005876089788886932, 0.5974479270142878, -0.0002918175475738027, -0.09418246493985998, -0.00018841243157385976, -0.294936549991546, 0.0001751335379043815, 0.6613451129645339, 0.00026022688959475725, -0.03155178954298777, -0.000275361243189892, -0.21203425031419512, -6.017658502102812e-05]
5985 -0.9066913839414278 -1.4471081540637085 1.509780952932642 0.036464808795474285 -0.008912414107598193 0.0014378415161271372 -3.235956833000941e-06 -1.2440844185042126e-05 1.3280203253375998e-05 0.0002078486779654216 -5.525787224952185e-05 2.3401325211601154e-05 [0.7000014519373969, -0.00043968770976519667, -0.10640439647387134, -0.0005705243728046945, 0.29002292367233495, -0.00023663557546786635, 0.7000003264343203, 6.882015167890485e-06, 0.004181162075788314, -0.0009612448475659328, 0.5224175398277344, 0.0005792752461974268, 0.5974476887371014, -0.00023827718646448435, -0.09418267849142131, -0.0002135515613312318, -0.2949364265521748, 0.000123439371214562, 0.6613453202134799, 0.00020724894598313703, -0.03155206358645336, -0.0002740434655927703, -0.21203426904199624, -1.8727801119394915e-05]
5986 -0.906691386460439 -1.4471081645077752 1.5097809633746728 0.03646497885031584 -0.008912456308637386 0.0014378632235484217 -2.519011201051915e-06 -1.0444066793992184e-05 1.0442030737793867e-05 0.00017010859082603456 -4.195649160950125e-05 2.3223003977603147e-05 [0.7000010986387204, -0.0003532986765281228, -0.10640490672607796, -0.000510252206609687, 0.29002282066373086, -0.00010300860407147004, 0.7000003315070867, 5.0727664350209804e-06, 0.004180214343478889, -0.0009477323094250509, 0.5224181113149561, 0.0005714872216429995, 0.5974474936491768, -0.0001950879245443384, -0.09418291171118809, -0.00023321976677404552, -0.2949363443510773, 8.220109748677105e-05, 0.661345484963697, 0.0001647502171745468, -0.03155233592470424, -0.0002723382508746625, -0.2120342550230976, 1.4018898612779853e-05]
5987 -0.9066913884053764 -1.4471081733551683 1.509780971542125 0.036465118632098836 -0.008912487844617352 0.0014378850019652234 -1.9449373808797008e-06 -8.847393039045532e-06 8.167452260925872e-06 0.00013982143169129387 -3.1334966807555904e-05 2.3024201546542925e-05 [0.7000008149661111, -0.0002836726092395309, -0.10640536765586837, -0.0004609297904143655, 0.2900228255996285, 4.93589761068964e-06, 0.7000003351148592, 3.6077724075668454e-06, 0.004179278236651998, -0.0009361068268906576, 0.5224186761672144, 0.0005648522582623516, 0.5974473332542954, -0.00016039488141773904, -0.09418316049178195, -0.0002487805938681989, -0.29493629512170344, 4.9229373843537086e-05, 0.6613456156749242, 0.00013071122717927609, -0.031552606602125235, -0.00027067742099840366, -0.21203421498542357, 4.003767403468506e-05]
5988 -0.9066913898908129 -1.447108180923635 1.5097809778873015 0.036465234174515755 -0.00891251085057876 0.0014379068314502217 -1.4854364798943674e-06 -7.568466670782366e-06 6.3451762890829894e-06 0.00011557078876537029 -2.283980630975436e-05 2.2859243080797186e-05 [0.700000587321886, -0.00022764422511670077, -0.10640578897131843, -0.0004213154500527917, 0.2900229172368522, 9.163722369551955e-05, 0.7000003375863129, 2.4714536886801756e-06, 0.004178351573888835, -0.0009266627631629123, 0.5224192356655893, 0.0005594983749137808, 0.5974472006462958, -0.0001326079996375875, -0.09418342168414522, -0.00026119236326479193, -0.29493627228855823, 2.283314521888957e-05, 0.6613457191481784, 0.00010347325415581806, -0.03155287584993456, -0.0002692478093287731, -0.2120341541871333, 6.0798290274415456e-05]
5989 -0.9066913910083507 -1.4471081874670917 1.5097809827724828 0.036465330334690065 -0.008912527024391092 0.0014379287135083657 -1.1175378479918877e-06 -6.543456770097895e-06 4.8851814211804245e-06 9.617951238797234e-05 -1.603553072549122e-05 2.273907617241099e-05 [0.7000004047059383, -0.00018261594768515955, -0.10640617877360607, -0.0003898022876356569, 0.2900230782986317, 0.0001610617795188208, 0.7000003392075296, 1.6212166944928457e-06, 0.004177432356034728, -0.0009192178541073983, 0.5224197909770635, 0.0005553114741681384, 0.5974470902539424, -0.00011039235336036957, -0.09418369282429553, -0.0002711401503152758, -0.29493627059606586, 1.6924923861938499e-06, 0.6613458008353766, 8.168719824612638e-05, -0.0315531439459207, -0.0002680959861394135, -0.21203407677999256, 7.740714076278836e-05]
5990 -0.9066913918311479 -1.447108193189307 1.5097809864876037 0.03646541100581518 -0.008912537719984489 0.0014379506505885478 -8.227971239777994e-07 -5.722215465249458e-06 3.715120905378429e-06 8.06832173684444e-05 -1.0579586776000376e-05 2.265605467809963e-05 [0.7000002582420356, -0.00014646390263685312, -0.10640654357123695, -0.00036479763088225365, 0.29002329489638734, 0.0002165977556168767, 0.7000003402121114, 1.0045818583746763e-06, 0.004176518945093126, -0.0009134109416021339, 0.5224203430615776, 0.0005520845141206965, 0.5974469976073359, -9.264660655112979e-05, -0.09418397195182748, -0.00027912753195072164, -0.29493628582995285, -1.5233886970173139e-05, 0.6613458650994557, 6.426407910613593e-05, -0.0315534111451599, -0.0002671992392010083, -0.21203398606966542, 9.071032713444843e-05]
5991 -0.9066913924176457 -1.4471081982541865 1.5097809892646854 0.03646547930011839 -0.008912544019982163 0.0014379726393515552 -5.864978509204858e-07 -5.064879499037465e-06 2.777081701312847e-06 6.830057935075424e-05 -6.201790508480967e-06 2.259743071776209e-05 [0.700000140783163, -0.00011745887261447022, -0.1064068884757948, -0.0003449045578431244, 0.2900235559450462, 0.000261048658835627, 0.7000003407820347, 5.699231899243607e-07, 0.004175610083046547, -0.0009088620465787879, 0.5224208926617248, 0.0005496001471549789, 0.5974469191328248, -7.84745111201404e-05, -0.09418425748891389, -0.00028553708640735137, -0.2949363146049203, -2.8774967485675808e-05, 0.6613459154290182, 5.032956251080018e-05, -0.03155367765405651, -0.00026650889661060525, -0.21203388470374135, 0.00010136592407446903]
5992 -0.9066913928145762 -1.4471082027936735 1.5097809912894793 0.036465537702129354 -0.00891254679209179 0.0014379946704395571 -3.9693043405268697e-07 -4.539487083995003e-06 2.0247937831780697e-06 5.8403617307079216e-05 -2.6881289854723227e-06 2.255159168527734e-05 [0.7000000465844203, -9.419874268446255e-05, -0.10640721745598032, -0.00032898018552379596, 0.2900238526291782, 0.0002966841319848857, 0.7000003410540487, 2.720141225203928e-07, 0.004174704839398533, -0.0009052436480135569, 0.5224214403306435, 0.0005476689187922114, 0.5974468519788552, -6.715396958260938e-05, -0.09418454815752086, -0.0002906686069747428, -0.29493635419997105, -3.959505075624539e-05, 0.6613459546130065, 3.918398831876688e-05, -0.031553943627625584, -0.00026597356907065624, -0.21203377481023064, 0.00010989351070781797]
5993 -0.906691393059356 -1.4471082069139516 1.5097809927107848 0.03646558819445613 -0.008912546732985442 0.001438016730583093 -2.447797454781942e-07 -4.120278209269714e-06 1.4213054637581685e-06 5.049018419512466e-05 1.317116310298955e-07 2.2510152801611424e-05 [0.6999999710336903, -7.555072995594381e-05, -0.10640753358351693, -0.00031612753660511356, 0.2900241779454937, 0.00032531631550060196, 0.7000003411280687, 7.401995767200791e-08, 0.004173802538193558, -0.0009023012049747871, 0.5224219864718347, 0.0005461411911363738, 0.5974467938718067, -5.810704851542958e-05, -0.09418484292014344, -0.00029476262257525844, -0.29493640242857133, -4.822860028072753e-05, 0.6613459848814351, 3.0268428599180312e-05, -0.031554209177054544, -0.00026554942895977906, -0.21203365810221053, 0.00011670802010902955]
5994 -0.9066913057455164 -1.4471080393468965 1.5097806347097473 0.0364608629598685 -0.008910584733489105 0.0014383467221383373 8.731383965775544e-05 0.00016756705506439153 -0.0003580010374528875 -0.004727863783542044 0.0019552019934120555 0.0002878828739667571 [0.7000123190112242, 0.012347977533942591, -0.1063993312099572, 0.008202373559726877, 0.2900409347056376, 0.016756760143894076, 0.7000004164836428, 7.5355573972174e-05, 0.004176447381336038, 0.0026448431424798548, 0.5224216897500971, -0.0002967217376368948, 0.5974517904357353, 0.004996563928620591, -0.09419116490352256, -0.006321983379113941, -0.29494193106719385, -0.00552863862253804, 0.6613399754121586, -0.006009469276490256, -0.03156104499953722, -0.006835822482674484, -0.21202913377978372, 0.004524322426804713]
5995 -0.9066912975030841 -1.447108077334389 1.5097806699287182 0.03646143350688637 -0.008911058731606546 0.0014382913681129127 8.242432260846766e-06 -3.798749248504923e-05 3.5218970923409e-05 0.0005712055366595163 -0.00047317703136449734 -5.0270049939564194e-05 [0.7000098457525753, -0.0024732586488639026, -0.1063993437021586, -1.249220140421125e-05, 0.29003954373631546, -0.0013909693220851092, 0.7000002942747539, -0.00012220888885644136, 0.004175830859351169, -0.000616521984868936, 0.5224225764806713, 0.0008867305741374382, 0.5974516314135617, -0.00015902217351713294, -0.09419086971802833, 0.00029518549422322213, -0.2949410873970538, 0.0008436701400509772, 0.6613411019169704, 0.001126504811742709, -0.031561089320568864, -4.432103164120609e-05, -0.21202934789142888, -0.00021411164516001863]
5996 -0.9066913145568978 -1.4471081265996073 1.5097807300593207 0.03646219557232929 -0.008911365339878144 0.0014382702126705322 -1.7053813746435867e-05 -4.926521840086782e-05 6.013060250659348e-05 0.0007624753858880008 -0.0003055119342733237 -1.4364605510011685e-05 [0.7000078938930913, -0.001951859484072305, -0.10640005712205419, -0.0007134198955944068, 0.29003755190549674, -0.0019918308187238296, 0.7000002521792128, -4.2095541070120805e-05, 0.004175056302525773, -0.0007745568253965143, 0.5224230336403313, 0.000457159659992722, 0.5974508121339436, -0.0008192796181615498, -0.09419061517389271, 0.0002545441356101364, -0.29494028968097974, 0.0007977160741117104, 0.6613420048469034, 0.0009029299330509497, -0.03156123698514349, -0.00014766457462055008, -0.21202996871881122, -0.000620827382325449]
5997 -0.9066913279086216 -1.4471081682935525 1.5097807814973214 0.03646288056137804 -0.00891161034622618 0.0014382657140902847 -1.3351723815363923e-05 -4.169394524146998e-05 5.143800079249108e-05 0.0006853135260472163 -0.00024402093628032108 1.6056105378073841e-06 [0.7000062949002326, -0.0015989928586608107, -0.10640097699460506, -0.0009198725508728931, 0.2900358022047612, -0.0017497007355045274, 0.7000002548214249, 2.6422121232177738e-06, 0.0041741946557482205, -0.0008616467775518649, 0.5224235691420077, 0.000535501676473424, 0.5974500416398011, -0.0007704941424865708, -0.09419049011941678, 0.00012505447592949122, -0.29493958470202286, 0.0007049789568986586, 0.6613427752210117, 0.0007703741083161194, -0.03156146413079584, -0.00022714565235237182, -0.2120304716189493, -0.0005029001380776638]
5998 -0.9066913383144505 -1.4471082018905568 1.509780823176795 0.03646345450725752 -0.008911804680475796 0.0014382727772259006 -1.0405828878841106e-05 -3.359700431987922e-05 4.1679473744253006e-05 0.0005742019999330234 -0.00019350859296766467 1.217790572110548e-05 [0.7000050030837125, -0.001291816520103788, -0.10640191210445424, -0.0009351098491817572, 0.2900343750512811, -0.0014271534801172262, 0.7000002703974175, 1.5575992577355166e-05, 0.004173261864620294, -0.0009327911279264836, 0.5224241436715227, 0.0005745295149548436, 0.5974493896231248, -0.0006520166762933574, -0.09419047086675768, 1.9252659101429994e-05, -0.2949390292453999, 0.0005554566229733982, 0.6613434067685957, 0.0006315475839944888, -0.03156171393836469, -0.0002498075688516951, -0.2120308519778176, -0.00038035886829453774]
5999 -0.9066913466312219 -1.4471082290774804 1.5097808566161524 0.03646392486859138 -0.008911957560826063 0.0014382868850895372 -8.316771365933475e-06 -2.7186923490833833e-05 3.343935737652498e-05 0.0004705620537134538 -0.0001522037080216687 1.829961244091199e-05 [0.7000039593838672, -0.0010436998453102232, -0.10640279470666258, -0.0008826022083523138, 0.29003326317055517, -0.0011118807259256887, 0.7000002858172213, 1.541980371670601e-05, 0.00417228610782136, -0.0009757567989332908, 0.5224247374099951, 0.0005937384724282242, 0.597448853128642, -0.0005364944827729756, -0.09419052648484212, -5.5618084444959226e-05, -0.29493860275228473, 0.00042649311516509736, 0.6613439153549336, 0.0005085863379772937, -0.03156197909543598, -0.00026515707129504774, -0.21203112032410182, -0.0002683462842097067]
6000 -0.9066913532493825 -1.4471082511974414 1.5097808833076927 0.036464308530243836 -0.008912077333444837 0.0014383048905251025 -6.61816063435068e-06 -2.2119960913732356e-05 2.6691540215454746e-05 0.00038381828815679066 -0.00011922069800905644 2.142458964449918e-05 [0.700003117076886, -0.0008423069811469529, -0.10640359869504833, -0.000803988385740762, 0.2900324289025412, -0.0008342680139313578, 0.7000002994214689, 1.360424757460675e-05, 0.00417129739703147, -0.0009887107898897698, 0.5224253353112216, 0.0005979012264815339, 0.5974484144668348, -0.00043866180715939766, -0.09419063882051656, -0.00011233567444626997, -0.29493827982072973, 0.00032293155500139807, 0.6613443231846623, 0.0004078297286718061, -0.0315622515735018, -0.0002724780658192984, -0.21203130144650423, -0.00018112240239833447]
6001 -0.9066913584898538 -1.4471082693266875 1.5097809045354127 0.03646462102393294 -0.008912170712741157 0.0014383248911774477 -5.240471334204624e-06 -1.8129246203761404e-05 2.1227720102835615e-05 0.00031261526470987666 -9.292975341013582e-05 2.2785597992931746e-05 [0.7000024380976613, -0.0006789792246944102, -0.10640431767714646, -0.000718982098138885, 0.2900318319263898, -0.000596976151423652, 0.7000003107398014, 1.1318332532709396e-05, 0.004170312714897791, -0.0009846821336789448, 0.5224259293111662, 0.0005939999445546737, 0.5974480565960452, -0.00035787078967916287, -0.09419079389346435, -0.0001550729477872033, -0.29493803890212256, 0.00024091860719649993, 0.6613446493372563, 0.00032615259402088377, -0.03156252653973842, -0.00027496623662145493, -0.2120314148501847, -0.0001134036804754827]
6002 -0.9066913626181784 -1.4471082843019325 1.5097809213600994 0.0364648756027795 -0.00891224306770309 0.0014383458255598067 -4.128324626235192e-06 -1.4975244998945435e-05 1.6824686669260867e-05 0.00025467254367888723 -7.198873199675298e-05 2.320321167440994e-05 [0.7000018914193502, -0.000546678311060555, -0.10640495579730186, -0.0006381201554001871, 0.29003143377454343, -0.00039815184636076046, 0.7000003197408231, 9.001021753043058e-06, 0.004169339900856071, -0.0009728140417195874, 0.5224265158431518, 0.0005865319856444554, 0.5974477647351979, -0.0002918608472528374, -0.09419098152286436, -0.00018762939999874878, -0.29493786298707353, 0.00017591504904280927, 0.6613449096002042, 0.0002602629479153297, -0.03156280139409534, -0.0002748543569214236, -0.21203147544811393, -6.059792923867575e-05]
6003 -0.9066913658523583 -1.44710829677283 1.509780934646634 0.03646508333269664 -0.008912298673829483 0.0014383671557052701 -3.2341799115775223e-06 -1.2470897457262034e-05 1.3286534558605654e-05 0.00020780143388610573 -5.530729116841616e-05 2.3181466244327225e-05 [0.7000014517441336, -0.000439675216541109, -0.10640552242896752, -0.0005666316656627274, 0.290031199623795, -0.00023415074844513483, 0.7000003266209536, 6.8801305083409415e-06, 0.0041683812525354046, -0.000958648320666426, 0.5224270940295114, 0.0005781863595227814, 0.5974475264199731, -0.00023831522482614854, -0.09419119428932073, -0.00021276645637645882, -0.2949377387659601, 0.00012422111343836129, 0.6613451168836084, 0.00020728340421730384, -0.03156307492922207, -0.0002735351267274166, -0.21203149460164145, -1.9153527502770215e-05]
6004 -0.9066913683696024 -1.4471083072470645 1.50978094509498 0.03646525333866014 -0.008912340924754276 0.0014383886424896419 -2.517244032824659e-06 -1.047423463226011e-05 1.0448345905659292e-05 0.0001700598087171169 -4.200635806215228e-05 2.3001911828390658e-05 [0.7000010984591949, -0.0003532849387614228, -0.10640602875779409, -0.0005063288265790803, 0.2900310991158953, -0.00010050789966834458, 0.7000003316901378, 5.0691842052088765e-06, 0.004167436131354799, -0.0009451211806057395, 0.5224276644200937, 0.0005703905823390997, 0.5974473312974871, -0.0001951224860230213, -0.09419142672262323, -0.0002324333025115687, -0.29493765578346726, 8.298249280073925e-05, 0.6613452816677664, 0.00016478415796903324, -0.031563346757895766, -0.0002718286736973411, -0.2120314810118961, 1.3589745356611787e-05]
6005 -0.9066913703127945 -1.4471083161246778 1.509780953268763 0.03646539307108822 -0.008912372511045695 0.0014384101997895146 -1.94319202788285e-06 -8.877613280700407e-06 8.173782923647779e-06 0.0001397721677682138 -3.138527575373175e-05 2.2802628630272385e-05 [0.7000008148008712, -0.00028365832373574947, -0.10640648574990147, -0.0004569921073836348, 0.2900311065580899, 7.442194576923842e-06, 0.7000003352932468, 3.6031090346826643e-06, 0.004166502641305071, -0.0009334900497271194, 0.5224282281722664, 0.000563752172720734, 0.5974471708700143, -0.00016042747275774074, -0.09419167471650816, -0.0002479938849261487, -0.2949376057737178, 5.000974944355146e-05, 0.6613454124131344, 0.00013074536794380388, -0.03156361692537395, -0.00027016747818156593, -0.21203144140557428, 3.960632180953093e-05]
6006 -0.9066913717965119 -1.4471083237233646 1.509780959620299 0.036465508564413246 -0.00891239556765463 0.0014384318082644252 -1.4837175097796697e-06 -7.598686682129933e-06 6.35153595901234e-06 0.00011552178383104181 -2.289046370819026e-05 2.263778215078569e-05 [0.7000005871708936, -0.00022762997755150594, -0.10640690312608793, -0.00041737618645290505, 0.29003120069930305, 9.41412131449527e-05, 0.7000003377595158, 2.4662689121400885e-06, 0.0041655785939018475, -0.0009240474032241999, 0.5224287865706607, 0.0005583983943178622, 0.5974470382302974, -0.00013263971688672483, -0.09419193512298582, -0.00026040647766477733, -0.29493758216180016, 2.3611917633798068e-05, 0.6613455159211352, 0.00010350800080394243, -0.03156388566382335, -0.000268738449401467, -0.21203138103970112, 6.036587317463163e-05]
6007 -0.9066913729123571 -1.4471083302970011 1.5097809645118707 0.03646560467620839 -0.008912411792333236 0.0014384534698291163 -1.1158452435816625e-06 -6.573636558441419e-06 4.89157192120151e-06 9.613121688865812e-05 -1.6086416056878594e-05 2.2518140468625186e-05 [0.7000004045687258, -0.00018260216782809514, -0.1064072889964032, -0.00038587031527077673, 0.29003136425734494, 0.00016355804187420106, 0.7000003393754552, 1.6159394458769594e-06, 0.004164661985076264, -0.000916608825584062, 0.5224293407848042, 0.0005542141435025687, 0.5974469278063999, -0.00011042389753377897, -0.09419220547891542, -0.0002703559296080288, -0.29493757969258205, 2.469218108669346e-06, 0.661345597643864, 8.172272883322386e-05, -0.03156415325179705, -0.00026758797370615033, -0.2120313040651411, 7.697456004329664e-05]
6008 -0.9066913737334856 -1.4471083360493275 1.5097809682334082 0.03646568529989291 -0.00891242253889992 0.0014384751871919772 -8.211285517363721e-07 -5.752326471708625e-06 3.721537601679252e-06 8.063585765348243e-05 -1.0630585914674988e-05 2.243590525792663e-05 [0.7000002581178596, -0.00014645086618402005, -0.10640764987502362, -0.0003608786204187624, 0.29003158334026496, 0.00021908292000159398, 0.700000340374955, 9.994997101439765e-07, 0.004163751173750461, -0.0009108113258022727, 0.5224298917762681, 0.0005509914639052673, 0.5974468351280348, -9.267836511296799e-05, -0.09419248382447706, -0.00027834556163752766, -0.2949375941521041, -1.4459522003212277e-05, 0.6613456619442873, 6.430042329663374e-05, -0.03156441994488516, -0.0002666930881060039, -0.212031213786902, 9.027823907427575e-05]
6009 -0.9066913743183358 -1.4471083411442294 1.5097809710169254 0.036465753547768015 -0.00891242888988571 0.001438496957164153 -5.848501830619461e-07 -5.094901860022586e-06 2.783517166301446e-06 6.825422981361688e-05 -6.25280953432007e-06 2.2378218241042417e-05 [0.700000140671134, -0.00011744672561952311, -0.10640799087689166, -0.0003410018680418585, 0.2900318468610919, 0.0002635208269517334, 0.7000003409401578, 5.652028915124606e-07, 0.004162844900158316, -0.0009062735921456846, 0.5224304402885812, 0.0005485123131702467, 0.5974467566213824, -7.850665243421729e-05, -0.09419276858221357, -0.000284757736497099, -0.29493762215528496, -2.800318085869028e-05, 0.6613457123109521, 5.0366664738970864e-05, -0.03156468594978269, -0.0002660048975301219, -0.2120311128521197, 0.00010093478230817536]
6010 -0.9066913747136364 -1.4471083457136362 1.5097809730481655 0.03646581190434542 -0.008912431712927937 0.0014385187704672874 -3.953005754585318e-07 -4.569406900763015e-06 2.031239959175788e-06 5.835826033282886e-05 -2.7390962749407406e-06 2.2333395177576458e-05 [0.700000046483599, -9.418753497432422e-05, -0.10640831597255708, -0.0003250956654087246, 0.2900321460034524, 0.0002991423605053359, 0.700000341207891, 2.6773314581485443e-07, 0.004161942232918925, -0.0009026672393908623, 0.5224309868753513, 0.0005465867700447798, 0.5974466894348576, -6.718652484212503e-05, -0.09419305847430645, -0.00028989209288760417, -0.29493766098128127, -3.8825996329289526e-05, 0.6613457515327031, 3.92217511054219e-05, -0.031564951421633236, -0.00026547185054192924, -0.21203100338849748, 0.00010946362222106785]
6011 -0.9066913749568014 -1.4471083498637216 1.5097809744759205 0.03646586235216825 -0.008912431704648293 0.0014385406138706111 -2.431650689258026e-07 -4.150085313342631e-06 1.427754918317337e-06 5.044575516806095e-05 8.08474151016362e-08 2.229301014716504e-05 [0.6999999709431548, -7.554044422322461e-05, -0.10640862823470985, -0.0003122621527692161, 0.29003247376366564, 0.00032776021325276643, 0.7000003412780867, 7.019569632714216e-08, 0.004161042495687559, -0.0008997372313660799, 0.5224315319402688, 0.0005450649175603985, 0.5974466312948836, -5.8139973983781296e-05, -0.09419335246336873, -0.00029398906228013914, -0.29493770844367606, -4.7462394800771916e-05, 0.6613457818394448, 3.0306741712132398e-05, -0.031565216471651, -0.00026505001776896703, -0.21203088710890347, 0.00011627959400213558]
6012 -0.906691287614507 -1.4471081823135625 1.509780616487888 0.03646113720274254 -0.00891046979193059 0.0014388702683740357 8.734229439684474e-05 0.00016755015908679003 -0.00035798803244403493 -0.004727779529018218 0.0019551128613323806 0.0002875471243625838 [0.7000123188145814, 0.012347871426605626, -0.10640042245847761, 0.008205776232237724, 0.29004923304751673, 0.01675928385106231, 0.7000004167179842, 7.543989747305347e-05, 0.0041636906508968905, 0.002648155209331739, 0.5224312341608253, -0.00029777944349572926, 0.5974516277031552, 0.004996408271545437, -0.09419967365843482, -0.006321195066090746, -0.29494323534206834, -0.0055268983922764645, 0.6613397725747314, -0.006009264713435673, -0.03157204974890007, -0.0068332772490718435, -0.21202636327336258, 0.00452383554088327]
6013 -0.9066912793003283 -1.4471082203237888 1.5097806517049792 0.03646170763367664 -0.008910943879077149 0.0014388146196490704 8.31417870321347e-06 -3.8010226219803195e-05 3.5217091135919705e-05 0.0005710898339585987 -0.0004732659284424096 -5.0565849406609097e-05 [0.7000098455788246, -0.0024732357567777887, -0.10640043045405746, -7.995579851625273e-06, 0.29004784647104975, -0.0013865764669792249, 0.7000002944788117, -0.0001222391724316627, 0.00416307729673178, -0.0006133541651100701, 0.5224321207264392, 0.0008865656138872356, 0.5974514687295964, -0.00015897355875564047, -0.09419937657178264, 0.0002970866521757225, -0.29494238938459844, 0.0008459574699154464, 0.6613408990874219, 0.0011265126904960515, -0.031572092822292445, -4.307339237135874e-05, -0.21202657658624133, -0.00021331287874342894]
